~VERSION INFORMATION
 VERS.                 2.0:   CWLS LOG ASCII STANDARD - VERSION 2.0
 WRAP.                  NO:   SINGLE LINE PER DEPTH STEP
 CREA.                 09/05/2023 10:30:38
#CREATED USING IP VERSION 4.7.2022.12301 BY USER15 ON 09/05/2023 10:30:38

~WELL INFORMATION
#MNEM.UNIT       DATA                          DESCRIPTION MNEMONIC
#---------      ---------------------------   --------------------------
 STRT    .M         800.0300                  : START DEPTH
 STOP    .M         2100.0000                 : STOP DEPTH
 STEP    .M         0.0700                    : STEP VALUE
 NULL    .      -999.0000                     : NULL VALUE
 DATE    .      09/05/2023                    : LAS file Creation Date
 WELL   .      PPWell         : Well Name
 COMP   .                     : Company
 FLD    .                     : Field
 UWI    .                     : Unique Well Identifier (UWI)
 LOC    .                     : Location
 PROV   .                     : Province
 PDAT   .      Mean Sea Level : Permanent Datum
 EPDAT  .      0              : Elevation of Permanent Datum
 LGMEA  .      KB             : Log Measured from
 DRMEA  .      KB             : Drill Measured From
 APDAT  .      10             : Elevation Above Permanent Datum
 RWS    .      -999           : Def_Rw
 WST    .      -999           : Def_Rwt
 SRVC   .      SCH            : Contractor
 GDAT   .      (Undefined)    : Geodatum
 LONG   .      0              : Longitude
 LATI   .      0              : Latitude
 COORDIN.                     : Grid System
 XCOORD .                     : X or East-West Coordinate
 YCOORD .                     : Y or North-South Coordinate

~CURVE INFORMATION
#MNEM              UNIT         API CODE    Curve Type   Comments
#----------  ---------------- ------------  ----------   -----------
 DEPTH      .M                              : Depth       
 DT         .US/F                           : Sonic       Sonic
 GR         .GAPI                           : GammaRay    
 NPHI       .V/V                            : Neutron     Neutron
 RD         .OHMM                           : DeepRes     DeepRes
 RHOB       .G/C3                           : Density     Density

~A  DEPTH     DT        GR       NPHI       RD       RHOB   
# ...
1973.5100   53.0407   96.4698    0.0205  259.5102    2.6553 
1973.5800   53.0615   96.5265    0.0206  259.5102    2.6540 
1973.6500   53.0655   96.7106    0.0206  266.5868    2.6525 
1973.7200   53.0642   96.8990    0.0206  266.5868    2.6510 
1973.7900   53.0586   97.0588    0.0206  271.4763    2.6495 
1973.8600   53.0772   97.2007    0.0206  272.3903    2.6480 
1973.9300   53.0631   97.3692    0.0205  276.5701    2.6466 
1974.0000   53.0742   97.6285    0.0204  279.3750    2.6453 
1974.0700   53.0751   97.9062    0.0203  279.4498    2.6442 
1974.1400   53.0714   98.0946    0.0203  279.5861    2.6431 
1974.2100   53.0452   98.2383    0.0203  279.0198    2.6422 
1974.2800   53.0259   98.4109    0.0202  274.4495    2.6417 
1974.3500   53.0071   98.4908    0.0202  274.4495    2.6413 
1974.4200   52.9966   98.3778    0.0202  267.5045    2.6412 
1974.4900   52.9581   98.3059    0.0202  267.5045    2.6413 
1974.5600   52.9548   98.3128    0.0202  255.7154    2.6413 
1974.6300   52.9152   98.3416    0.0202  255.7154    2.6412 
1974.7000   52.9072   98.3850    0.0203  244.5729    2.6411 
1974.7700   52.9040   98.3194    0.0204  240.9748    2.6413 
1974.8400   52.9091   98.1570    0.0205  231.6732    2.6421 
1974.9100   53.3492   97.8944    0.0206  222.8009    2.6432 
1974.9800   53.3808   97.5468    0.0207  217.8140    2.6445 
1975.0500   53.7107   97.2713    0.0208  204.1733    2.6464 
1975.1200   53.8319   97.0609    0.0209  203.8672    2.6489 
1975.1900   53.8346   96.8195    0.0210  191.2132    2.6519 
1975.2600   53.7805   96.8218    0.0211  191.2132    2.6552 
1975.3300   53.7678   97.0215    0.0213  179.1822    2.6590 
1975.4000   53.7487   97.2178    0.0215  179.1822    2.6636 
1975.4700   53.7151   97.4456    0.0217  168.9700    2.6691 
1975.5400   53.7202   97.7638    0.0219  168.0016    2.6750 
1975.6100   53.6713   98.1570    0.0221  161.6086    2.6812 
1975.6800   53.7199   98.4946    0.0224  158.4497    2.6878 
1975.7500   54.1179   98.6762    0.0227  154.2085    2.6946 
1975.8200   54.1649   98.7598    0.0229  148.4750    2.7012 
1975.8900   54.1742   98.8326    0.0232  147.4065    2.7075 
1975.9600   54.4252   98.9752    0.0235  142.5752    2.7136 
1976.0300   54.6134   99.2595    0.0238  142.5752    2.7195 
1976.1000   54.6379   99.6615    0.0241  140.7132    2.7252 
1976.1700   54.8186  100.1074    0.0245  140.7132    2.7306 
1976.2400   54.9317  100.6567    0.0248  139.0494    2.7358 
1976.3100   55.6525  101.3677    0.0252  139.0494    2.7412 
1976.3800   55.6161  102.1902    0.0255  139.0876    2.7466 
1976.4500   55.6154  103.1135    0.0258  139.0957    2.7517 
1976.5200   55.5576  104.0533    0.0261  139.7120    2.7552 
1976.5900   55.0773  104.8622    0.0263  140.1534    2.7565 
1976.6600   55.0011  105.4464    0.0265  141.4142    2.7548 
1976.7300   55.0236  106.0608    0.0266  143.8770    2.7505 
1976.8000   54.9213  106.7844    0.0266  144.3220    2.7434 
1976.8700   54.6453  107.4973    0.0266  148.5868    2.7337 
1976.9400   54.4749  108.0688    0.0265  148.5868    2.7230 
1977.0100   54.5029  108.6205    0.0264  155.5905    2.7126 
1977.0800   54.4252  109.1852    0.0262  155.5905    2.7033 
1977.1500   54.3667  109.7428    0.0260  162.4664    2.6954 
1977.2200   53.7292  110.2770    0.0257  162.5764    2.6891 
1977.2900   53.6521  110.7661    0.0253  167.5335    2.6841 
1977.3600   53.9732  111.3602    0.0250  169.2737    2.6803 
1977.4300   53.8361  111.9856    0.0247  171.5770    2.6770 
1977.5000   54.2711  112.5069    0.0244  173.9169    2.6738 
1977.5700   54.2119  113.0207    0.0241  173.6495    2.6705 
1977.6400   54.3477  113.4653    0.0238  172.8558    2.6669 
1977.7100   54.3280  113.8642    0.0235  172.8376    2.6628 
1977.7800   54.3074  114.2907    0.0233  170.5478    2.6581 
1977.8500   54.2103  114.6843    0.0230  170.5478    2.6529 
1977.9200   54.1928  115.1266    0.0226  168.3183    2.6473 
1977.9900   54.1741  115.6825    0.0223  168.3183    2.6413 
1978.0600   54.1435  116.2019    0.0220  163.8456    2.6351 
1978.1300   54.1022  116.6187    0.0217  163.3356    2.6286 
1978.2000   54.0827  117.0956    0.0215  159.9132    2.6218 
1978.2700   54.0718  117.6495    0.0214  158.0989    2.6147 
1978.3400   54.0344  118.1773    0.0213  155.9047    2.6073 
1978.4100   54.0142  118.6591    0.0213  152.7399    2.5997 
1978.4800   54.4294  119.2063    0.0213  151.6804    2.5921 
1978.5500   54.4107  119.8504    0.0213  146.3324    2.5843 
1978.6200   54.7534  120.4307    0.0214  146.3324    2.5767 
1978.6900   54.7878  120.8459    0.0214  139.9013    2.5692 
1978.7600   55.0687  121.2521    0.0214  139.9013    2.5615 
1978.8300   55.1986  121.7379    0.0214  135.7620    2.5534 
1978.9000   55.3757  122.1934    0.0213  135.7620    2.5449 
1978.9700   55.6043  122.6030    0.0213  130.8951    2.5361 
1979.0400   55.6974  122.9635    0.0213  129.7611    2.5269 
1979.1100   56.0354  123.4435    0.0213  127.8977    2.5170 
1979.1800   55.7063  124.0685    0.0213  126.4743    2.5064 
1979.2500   56.0798  124.6598    0.0213  125.8580    2.4952 
1979.3200   55.8190  125.1517    0.0213  124.5653    2.4835 
1979.3900   56.1218  125.6883    0.0213  124.4487    2.4710 
1979.4600   56.1231  126.2550    0.0212  123.0851    2.4576 
1979.5300   56.4630  126.7520    0.0212  123.0851    2.4436 
1979.6000   56.5457  127.2715    0.0211  125.3825    2.4292 
1979.6700   56.5616  127.7999    0.0210  125.3825    2.4144 
1979.7400   56.5324  128.2317    0.0209  129.7179    2.3994 
1979.8100   56.6154  128.6277    0.0208  129.8589    2.3845 
1979.8800   56.5612  129.0585    0.0207  131.9338    2.3697 
1979.9500   56.6335  129.5292    0.0206  132.7232    2.3550 
1980.0200   56.5508  130.0233    0.0205  135.0451    2.3403 
1980.0900   56.6422  130.4529    0.0204  137.5573    2.3258 
1980.1600   56.5538  130.8152    0.0203  138.7124    2.3114 
1980.2300   56.5858  131.1683    0.0201  142.4473    2.2971 
1980.3000   56.5094  131.3686    0.0200  142.4473    2.2827 
1980.3700   56.5207  131.3695    0.0199  147.8588    2.2685 
1980.4400   56.4746  131.3695    0.0197  147.8588    2.2547 
1980.5100   56.4600  131.3695    0.0196  152.7855    2.2423 
1980.5800   56.4707  131.3695    0.0195  152.7855    2.2325 
1980.6500   56.4275  131.3695    0.0194  158.3216    2.2252 
1980.7200   56.4900  131.3695    0.0192  159.0630    2.2209 
1980.7900   56.4251  131.3695    0.0191  163.2154    2.2190 
1980.8600   56.5164  131.3695    0.0190  165.5736    2.2193 
1980.9300   56.4296  131.3695    0.0189  167.8959    2.2212 
1981.0000   56.4866  131.3695    0.0187  171.4723    2.2230 
1981.0700   56.4152  131.3695    0.0186  172.4479    2.2237 
1981.1400   56.4678  131.3695    0.0185  177.9933    2.2231 
1981.2100   56.4345  131.3695    0.0184  177.9933    2.2212 
1981.2800   56.4472  131.3695    0.0183  185.6049    2.2179 
1981.3500   56.4422  131.3695    0.0182  185.6049    2.2137 
1981.4200   56.4158  131.3695    0.0180  190.9620    2.2091 
1981.4900   56.4612  131.3695    0.0179  190.9620    2.2043 
1981.5600   56.4100  131.3695    0.0178  195.3122    2.1998 
1981.6300   56.4854  131.3695    0.0177  196.4321    2.1955 
1981.7000   56.4125  131.3695    0.0175  197.2638    2.1918 
1981.7700   56.4794  131.3695    0.0174  197.9410    2.1887 
1981.8400   56.3970  131.3695    0.0173  197.8507    2.1860 
1981.9100   56.4586  131.3695    0.0172  197.6469    2.1837 
1981.9800   56.3990  131.3695    0.0171  197.4426    2.1816 
1982.0500   56.4505  131.3695    0.0170  194.4034    2.1797 
1982.1200   56.4444  131.3695    0.0169  194.4034    2.1780 
1982.1900   56.4549  131.3695    0.0168  189.3802    2.1765 
1982.2600   56.5116  131.3695    0.0167  189.3802    2.1751 
1982.3300   56.4741  131.3695    0.0165  184.1759    2.1738 
1982.4000   56.5785  131.3695    0.0164  183.9178    2.1725 
1982.4700   56.5192  131.3695    0.0163  181.4571    2.1713 
1982.5400   56.6438  131.3695    0.0163  180.4454    2.1701 
1982.6100   56.5619  131.3695    0.0162  180.1573    2.1689 
1982.6800   56.2556  131.3695    0.0162  179.8251    2.1678 
