~VERSION INFORMATION
 VERS.                 2.0:   CWLS LOG ASCII STANDARD - VERSION 2.0
 WRAP.                  NO:   SINGLE LINE PER DEPTH STEP
 CREA.                 09/05/2023 10:30:38
#CREATED USING IP VERSION 4.7.2022.12301 BY USER15 ON 09/05/2023 10:30:38

~WELL INFORMATION
#MNEM.UNIT       DATA                          DESCRIPTION MNEMONIC
#---------      ---------------------------   --------------------------
 STRT    .M         800.0300                  : START DEPTH
 STOP    .M         2100.0000                 : STOP DEPTH
 STEP    .M         0.0700                    : STEP VALUE
 NULL    .      -999.0000                     : NULL VALUE
 DATE    .      09/05/2023                    : LAS file Creation Date
 WELL   .      PPWell         : Well Name
 COMP   .                     : Company
 FLD    .                     : Field
 UWI    .                     : Unique Well Identifier (UWI)
 LOC    .                     : Location
 PROV   .                     : Province
 PDAT   .      Mean Sea Level : Permanent Datum
 EPDAT  .      0              : Elevation of Permanent Datum
 LGMEA  .      KB             : Log Measured from
 DRMEA  .      KB             : Drill Measured From
 APDAT  .      10             : Elevation Above Permanent Datum
 RWS    .      -999           : Def_Rw
 WST    .      -999           : Def_Rwt
 SRVC   .      SCH            : Contractor
 GDAT   .      (Undefined)    : Geodatum
 LONG   .      0              : Longitude
 LATI   .      0              : Latitude
 COORDIN.                     : Grid System
 XCOORD .                     : X or East-West Coordinate
 YCOORD .                     : Y or North-South Coordinate

~CURVE INFORMATION
#MNEM              UNIT         API CODE    Curve Type   Comments
#----------  ---------------- ------------  ----------   -----------
 DEPTH      .M                              : Depth       
 DT         .US/F                           : Sonic       Sonic
 GR         .GAPI                           : GammaRay    
 NPHI       .V/V                            : Neutron     Neutron
 RD         .OHMM                           : DeepRes     DeepRes
 RHOB       .G/C3                           : Density     Density

~A  DEPTH     DT        GR       NPHI       RD       RHOB   
# ...
1760.9900   85.3724   99.5143    0.2714    8.4272    2.3597 
1761.0600   85.3676   99.4957    0.2720    8.3920    2.3543 
1761.1300   85.3130   99.4295    0.2726    8.3920    2.3491 
1761.2000   85.2901   99.4401    0.2732    8.3495    2.3444 
1761.2700   85.3001   99.5578    0.2739    8.3495    2.3403 
1761.3400   85.3223   99.5729    0.2744    8.3230    2.3368 
1761.4100   85.3138   99.2849    0.2750    8.3145    2.3335 
1761.4800   85.2746   98.9725    0.2755    8.2990    2.3304 
1761.5500   85.2723   98.8394    0.2760    8.2843    2.3271 
1761.6200   85.2812   98.8657    0.2763    8.2797    2.3237 
1761.6900   85.2745   98.7487    0.2766    8.2674    2.3201 
1761.7600   85.2730   98.5939    0.2768    8.2663    2.3160 
1761.8300   85.2669   98.7023    0.2769    8.2214    2.3117 
1761.9000   85.2236   98.7989    0.2769    8.2214    2.3075 
1761.9700   85.2137   98.7107    0.2767    8.1578    2.3039 
1762.0400   85.2523   98.6199    0.2767    8.1578    2.3007 
1762.1100   85.2869   98.6582    0.2767    8.0792    2.2980 
1762.1800   85.2986   98.6926    0.2768    8.0718    2.2961 
1762.2500   85.2935   98.7511    0.2769    8.0143    2.2948 
1762.3200   85.2986   98.6667    0.2772    7.9860    2.2941 
1762.3900   85.2820   98.4596    0.2774    7.9457    2.2936 
1762.4600   85.2832   98.4514    0.2776    7.8912    2.2931 
1762.5300   85.4020   98.4785    0.2781    7.8723    2.2927 
1762.6000   85.3917   98.4006    0.2788    7.7868    2.2924 
1762.6700   85.5478   98.3285    0.2794    7.7868    2.2922 
1762.7400   85.5496   98.2098    0.2798    7.6688    2.2921 
1762.8100   85.7197   98.0720    0.2802    7.6688    2.2921 
1762.8800   85.8028   97.9664    0.2805    7.5460    2.2923 
1762.9500   86.0804   98.0637    0.2808    7.5460    2.2928 
1763.0200   86.4395   98.2672    0.2810    7.4477    2.2934 
1763.0900   86.5689   98.5285    0.2811    7.4271    2.2939 
1763.1600   87.0921   98.7588    0.2813    7.3702    2.2945 
1763.2300   87.1066   98.8255    0.2816    7.3294    2.2949 
1763.3000   87.7842   98.8406    0.2820    7.3009    2.2950 
1763.3700   87.8006   98.8580    0.2825    7.2452    2.2949 
1763.4400   88.4654   98.7801    0.2832    7.2350    2.2947 
1763.5100   88.4979   98.7095    0.2848    7.1380    2.2944 
1763.5800   89.0517   98.5061    0.2868    7.1380    2.2940 
1763.6500   89.1605   98.0927    0.2888    7.0262    2.2937 
1763.7200   89.5240   97.6729    0.2909    7.0262    2.2938 
1763.7900   89.7213   97.3244    0.2930    6.8660    2.2947 
1763.8600   90.0364   97.1215    0.2950    6.8635    2.2970 
1763.9300   90.4066   97.0821    0.2968    6.6843    2.3007 
1764.0000   90.5833   97.1822    0.2986    6.6214    2.3059 
1764.0700   91.0480   97.3618    0.3004    6.4874    2.3128 
1764.1400   91.1227   97.4021    0.3022    6.3513    2.3205 
1764.2100   91.6426   97.3262    0.3040    6.2956    2.3282 
1764.2800   91.7028   97.1496    0.3058    6.1304    2.3353 
1764.3500   92.4619   96.9349    0.3078    6.1288    2.3417 
1764.4200   92.5214   96.8913    0.3098    5.9277    2.3471 
1764.4900   92.9369   96.9544    0.3119    5.9277    2.3513 
1764.5600   93.0548   96.8471    0.3140    5.7297    2.3546 
1764.6300   93.3723   96.7306    0.3162    5.7297    2.3575 
1764.7000   93.5613   96.7317    0.3182    5.5930    2.3605 
1764.7700   93.8399   96.8068    0.3199    5.5775    2.3638 
1764.8400   94.1412   96.7933    0.3214    5.5037    2.3674 
1764.9100   94.3823   96.6467    0.3228    5.4645    2.3712 
1764.9800   94.9885   96.5878    0.3242    5.4067    2.3754 
1765.0500   95.1421   96.5755    0.3255    5.3234    2.3797 
1765.1200   95.9799   96.6379    0.3266    5.2956    2.3839 
1765.1900   96.0696   96.9096    0.3278    5.1551    2.3878 
1765.2600   96.7268   97.0568    0.3289    5.1551    2.3911 
1765.3300   96.8293   96.9840    0.3296    4.9992    2.3938 
1765.4000   97.3035   96.9262    0.3301    4.9992    2.3958 
1765.4700   97.4872   96.7767    0.3307    4.8383    2.3975 
1765.5400   97.8821   96.3585    0.3311    4.8383    2.3992 
1765.6100   98.0232   95.8813    0.3320    4.6914    2.4010 
1765.6800   98.2618   95.5821    0.3329    4.6572    2.4030 
1765.7500   98.1731   95.2608    0.3341    4.5400    2.4054 
1765.8200   98.3595   95.0142    0.3353    4.4505    2.4081 
1765.8900   98.0686   94.9189    0.3362    4.3819    2.4108 
1765.9600   98.2965   94.8342    0.3367    4.2379    2.4129 
1766.0300   97.9455   94.8099    0.3364    4.2238    2.4142 
1766.1000   98.1041   94.8554    0.3353    4.0600    2.4146 
1766.1700   97.8674   94.8045    0.3336    4.0600    2.4141 
1766.2400   97.8452   94.6637    0.3318    3.9013    2.4124 
1766.3100   97.8713   94.3550    0.3299    3.9013    2.4099 
1766.3800   97.7300   94.1056    0.3280    3.7593    2.4071 
1766.4500   98.0547   94.0680    0.3264    3.7547    2.4043 
1766.5200   98.0143   93.7791    0.3250    3.6710    2.4017 
1766.5900   98.3814   93.1833    0.3237    3.6392    2.3990 
1766.6600   98.4833   92.5239    0.3229    3.6079    2.3963 
1766.7300   98.7264   91.9133    0.3223    3.5741    2.3936 
1766.8000   99.0963   91.2635    0.3221    3.5830    2.3907 
1766.8700   99.3386   90.5699    0.3223    3.6116    2.3879 
1766.9400   99.7281   89.8746    0.3227    3.6116    2.3850 
1767.0100   99.8728   89.0287    0.3238    3.6575    2.3825 
1767.0800  100.1180   88.1121    0.3250    3.6575    2.3804 
1767.1500  100.1478   87.1791    0.3264    3.6523    2.3793 
1767.2200  100.3412   86.2296    0.3279    3.6523    2.3792 
1767.2900  100.3325   85.3420    0.3293    3.5899    2.3799 
1767.3600  100.7882   84.9032    0.3309    3.5815    2.3810 
1767.4300  100.6844   84.7035    0.3321    3.5222    2.3822 
1767.5000  101.0118   84.5145    0.3333    3.4886    2.3833 
1767.5700  100.9356   84.4840    0.3344    3.4549    2.3839 
1767.6400  101.1794   84.5206    0.3359    3.4031    2.3836 
1767.7100  101.2611   84.4929    0.3374    3.3928    2.3822 
1767.7800  101.4973   84.4831    0.3392    3.3338    2.3797 
1767.8500  101.7285   84.4549    0.3409    3.3338    2.3767 
1767.9200  101.8320   84.4250    0.3429    3.2865    2.3732 
1767.9900  102.0978   84.3007    0.3447    3.2865    2.3694 
1768.0600  102.1197   84.0755    0.3466    3.2632    2.3655 
1768.1300  102.5477   83.7118    0.3485    3.2632    2.3618 
1768.2000  102.5631   83.3235    0.3503    3.2365    2.3584 
1768.2700  102.8981   83.0436    0.3524    3.2296    2.3553 
1768.3400  102.8385   82.9180    0.3543    3.2020    2.3525 
1768.4100  103.2432   83.0383    0.3562    3.1795    2.3499 
1768.4800  103.2182   83.3413    0.3579    3.1645    2.3477 
1768.5500  103.4850   83.7151    0.3594    3.1309    2.3460 
1768.6200  103.4561   84.1033    0.3608    3.1276    2.3444 
1768.6900  103.6333   84.4175    0.3618    3.0790    2.3427 
1768.7600  103.8101   84.7103    0.3626    3.0790    2.3411 
1768.8300  103.8895   85.1594    0.3634    3.0589    2.3393 
1768.9000  104.2419   85.3878    0.3641    3.0589    2.3371 
1768.9700  104.2310   85.3209    0.3650    3.0784    2.3344 
1769.0400  104.6074   85.3535    0.3662    3.0794    2.3316 
1769.1100  104.6681   85.4383    0.3675    3.1118    2.3288 
1769.1800  105.1148   85.6204    0.3692    3.1251    2.3262 
1769.2500  105.2094   85.8295    0.3709    3.1376    2.3236 
1769.3200  105.5971   86.0246    0.3728    3.1520    2.3209 
1769.3900  105.7833   86.2379    0.3746    3.1535    2.3185 
1769.4600  105.9834   86.2729    0.3759    3.1586    2.3162 
1769.5300  106.2837   86.2456    0.3768    3.1586    2.3139 
1769.6000  106.3889   86.0989    0.3773    3.1718    2.3116 
1769.6700  106.6211   85.8480    0.3777    3.1718    2.3096 
1769.7400  106.6594   85.6985    0.3783    3.1866    2.3081 
1769.8100  106.8640   85.6007    0.3788    3.1866    2.3070 
1769.8800  106.9026   85.5844    0.3795    3.1926    2.3063 
1769.9500  106.7116   85.5964    0.3808    3.1935    2.3057 
1770.0200  106.7299   85.6550    0.3819    3.1922    2.3055 
1770.0900  106.5083   85.6546    0.3830    3.1914    2.3055 
1770.1600  106.5805   85.4603    0.3842    3.1891    2.3056 
