~VERSION INFORMATION
 VERS.                 2.0:   CWLS LOG ASCII STANDARD - VERSION 2.0
 WRAP.                  NO:   SINGLE LINE PER DEPTH STEP
 CREA.                 09/05/2023 10:30:38
#CREATED USING IP VERSION 4.7.2022.12301 BY USER15 ON 09/05/2023 10:30:38

~WELL INFORMATION
#MNEM.UNIT       DATA                          DESCRIPTION MNEMONIC
#---------      ---------------------------   --------------------------
 STRT    .M         800.0300                  : START DEPTH
 STOP    .M         2100.0000                 : STOP DEPTH
 STEP    .M         0.0700                    : STEP VALUE
 NULL    .      -999.0000                     : NULL VALUE
 DATE    .      09/05/2023                    : LAS file Creation Date
 WELL   .      PPWell         : Well Name
 COMP   .                     : Company
 FLD    .                     : Field
 UWI    .                     : Unique Well Identifier (UWI)
 LOC    .                     : Location
 PROV   .                     : Province
 PDAT   .      Mean Sea Level : Permanent Datum
 EPDAT  .      0              : Elevation of Permanent Datum
 LGMEA  .      KB             : Log Measured from
 DRMEA  .      KB             : Drill Measured From
 APDAT  .      10             : Elevation Above Permanent Datum
 RWS    .      -999           : Def_Rw
 WST    .      -999           : Def_Rwt
 SRVC   .      SCH            : Contractor
 GDAT   .      (Undefined)    : Geodatum
 LONG   .      0              : Longitude
 LATI   .      0              : Latitude
 COORDIN.                     : Grid System
 XCOORD .                     : X or East-West Coordinate
 YCOORD .                     : Y or North-South Coordinate

~CURVE INFORMATION
#MNEM              UNIT         API CODE    Curve Type   Comments
#----------  ---------------- ------------  ----------   -----------
 DEPTH      .M                              : Depth       
 DT         .US/F                           : Sonic       Sonic
 GR         .GAPI                           : GammaRay    
 NPHI       .V/V                            : Neutron     Neutron
 RD         .OHMM                           : DeepRes     DeepRes
 RHOB       .G/C3                           : Density     Density

~A  DEPTH     DT        GR       NPHI       RD       RHOB   
# ...
1465.3100   91.6143  122.9622    0.2746    6.2933    2.4545 
1465.3800   91.6071  123.3983    0.2744    6.3015    2.4556 
1465.4500   91.5878  123.7179    0.2743    6.3039    2.4568 
1465.5200   91.6006  123.7785    0.2742    6.3110    2.4583 
1465.5900   91.6247  123.6280    0.2741    6.3173    2.4597 
1465.6600   91.6415  123.3768    0.2740    6.3219    2.4612 
1465.7300   91.6429  123.3642    0.2739    6.3333    2.4627 
1465.8000   91.6601  123.6812    0.2738    6.3339    2.4641 
1465.8700   91.6591  124.1027    0.2735    6.3480    2.4651 
1465.9400   91.6330  124.2333    0.2733    6.3480    2.4658 
1466.0100   91.6248  124.1062    0.2730    6.3644    2.4666 
1466.0800   91.6045  124.1133    0.2726    6.3644    2.4673 
1466.1500   91.5952  124.2672    0.2722    6.3798    2.4680 
1466.2200   91.5417  124.4056    0.2718    6.3809    2.4683 
1466.2900   91.5366  124.4449    0.2715    6.3914    2.4687 
1466.3600   91.5086  124.4531    0.2713    6.3962    2.4692 
1466.4300   91.4880  124.7699    0.2711    6.3996    2.4698 
1466.5000   91.4903  125.1053    0.2711    6.4039    2.4702 
1466.5700   91.4666  125.4648    0.2712    6.4051    2.4704 
1466.6400   91.4692  125.8364    0.2713    6.4101    2.4708 
1466.7100   91.4397  126.1538    0.2716    6.4101    2.4712 
1466.7800   91.4174  126.2962    0.2719    6.4233    2.4717 
1466.8500   91.3434  126.2612    0.2720    6.4233    2.4722 
1466.9200   91.3259  126.3368    0.2721    6.4370    2.4727 
1466.9900   91.2825  126.4228    0.2721    6.4370    2.4732 
1467.0600   91.2850  126.5253    0.2719    6.4474    2.4738 
1467.1300   91.2564  126.5309    0.2715    6.4493    2.4745 
1467.2000   91.2405  126.3674    0.2708    6.4579    2.4750 
1467.2700   91.2145  126.1056    0.2703    6.4637    2.4755 
1467.3400   91.1862  126.0308    0.2699    6.4703    2.4757 
1467.4100   91.1608  126.0171    0.2696    6.4823    2.4759 
1467.4800   91.1346  126.0241    0.2693    6.4845    2.4761 
1467.5500   91.1379  125.9827    0.2691    6.5027    2.4764 
1467.6200   91.1183  125.8033    0.2689    6.5027    2.4767 
1467.6900   91.1101  125.7122    0.2687    6.5281    2.4771 
1467.7600   91.0764  125.8009    0.2684    6.5281    2.4775 
1467.8300   91.0647  125.8967    0.2683    6.5571    2.4779 
1467.9000   91.0606  125.8183    0.2681    6.5571    2.4784 
1467.9700   91.0399  125.6959    0.2681    6.5781    2.4788 
1468.0400   91.0493  125.5825    0.2679    6.5849    2.4791 
1468.1100   91.0147  125.4473    0.2679    6.5985    2.4793 
1468.1800   90.9784  125.3412    0.2679    6.6114    2.4794 
1468.2500   90.9531  125.2663    0.2678    6.6185    2.4793 
1468.3200   90.9452  125.3349    0.2677    6.6381    2.4791 
1468.3900   90.9007  125.3824    0.2676    6.6388    2.4788 
1468.4600   90.8975  125.3847    0.2676    6.6689    2.4783 
1468.5300   90.8876  125.4577    0.2676    6.6689    2.4778 
1468.6000   90.8854  125.5690    0.2675    6.7083    2.4775 
1468.6700   90.8534  125.6018    0.2674    6.7083    2.4774 
1468.7400   90.8293  125.4630    0.2673    6.7411    2.4774 
1468.8100   90.7990  125.3171    0.2670    6.7442    2.4774 
1468.8800   90.7609  125.4884    0.2667    6.7596    2.4774 
1468.9500   90.7085  125.7495    0.2663    6.7671    2.4774 
1469.0200   90.6828  125.8429    0.2661    6.7719    2.4773 
1469.0900   90.6843  125.9442    0.2658    6.7783    2.4772 
1469.1600   90.6412  126.1420    0.2658    6.7796    2.4769 
1469.2300   90.6420  126.1451    0.2658    6.7857    2.4766 
1469.3000   90.6275  126.0704    0.2657    6.7857    2.4763 
1469.3700   90.6263  126.1144    0.2657    6.7977    2.4761 
1469.4400   90.6039  126.3097    0.2657    6.7977    2.4758 
1469.5100   90.5937  126.6103    0.2657    6.8108    2.4757 
1469.5800   90.5801  127.0058    0.2656    6.8108    2.4755 
1469.6500   90.5719  127.3727    0.2657    6.8261    2.4753 
1469.7200   90.5425  127.6143    0.2658    6.8293    2.4751 
1469.7900   90.5129  127.7948    0.2657    6.8454    2.4750 
1469.8600   90.4943  127.8050    0.2657    6.8569    2.4751 
1469.9300   90.4320  127.8046    0.2658    6.8707    2.4755 
1470.0000   90.4261  127.7624    0.2661    6.8977    2.4760 
1470.0700   90.3717  127.6529    0.2663    6.9020    2.4766 
1470.1400   90.3675  127.5617    0.2665    6.9436    2.4771 
1470.2100   90.3159  127.5606    0.2668    6.9436    2.4777 
1470.2800   90.3048  127.6861    0.2672    6.9870    2.4783 
1470.3500   90.2785  127.8351    0.2674    6.9870    2.4788 
1470.4200   90.2678  127.7332    0.2675    7.0280    2.4790 
1470.4900   90.2262  127.4470    0.2673    7.0287    2.4791 
1470.5600   90.2104  127.2700    0.2671    7.0582    2.4791 
1470.6300   90.1683  127.2657    0.2667    7.0686    2.4791 
1470.7000   90.1467  127.3537    0.2665    7.0883    2.4790 
1470.7700   90.1477  127.1834    0.2662    7.1083    2.4786 
1470.8400   90.1197  126.9194    0.2659    7.1186    2.4780 
1470.9100   90.0989  126.6168    0.2656    7.1491    2.4773 
1470.9800   90.0556  126.4445    0.2654    7.1494    2.4765 
1471.0500   90.0452  126.5889    0.2654    7.1859    2.4755 
1471.1200   90.0104  126.6963    0.2654    7.1859    2.4744 
1471.1900   89.9965  126.6629    0.2652    7.2193    2.4733 
1471.2600   89.9328  126.6751    0.2652    7.2193    2.4724 
1471.3300   89.9200  126.6764    0.2652    7.2513    2.4718 
1471.4000   89.8340  126.6058    0.2651    7.2549    2.4714 
1471.4700   89.7758  126.4857    0.2650    7.2796    2.4714 
1471.5400   89.7652  126.3500    0.2649    7.2926    2.4716 
1471.6100   89.7102  126.1668    0.2649    7.3063    2.4720 
1471.6800   89.6943  125.9957    0.2651    7.3260    2.4725 
1471.7500   89.6291  125.8773    0.2653    7.3314    2.4730 
1471.8200   89.6199  125.7367    0.2656    7.3588    2.4734 
1471.8900   89.5468  125.6069    0.2659    7.3588    2.4737 
1471.9600   89.5164  125.6330    0.2662    7.3906    2.4740 
1472.0300   89.4783  125.6753    0.2663    7.3906    2.4743 
1472.1000   89.4873  125.5074    0.2664    7.4307    2.4748 
1472.1700   89.5198  125.5297    0.2664    7.4307    2.4755 
1472.2400   89.5749  125.9921    0.2664    7.4701    2.4764 
1472.3100   89.5891  126.4712    0.2663    7.4792    2.4775 
1472.3800   89.7935  126.8285    0.2663    7.5087    2.4788 
1472.4500   89.7413  127.1226    0.2663    7.5312    2.4801 
1472.5200   90.0377  127.3071    0.2663    7.5483    2.4815 
1472.5900   90.0027  127.3686    0.2663    7.5840    2.4828 
1472.6600   90.2759  127.4046    0.2663    7.5889    2.4838 
1472.7300   90.2544  127.3904    0.2664    7.6468    2.4848 
1472.8000   90.4164  127.4345    0.2664    7.6468    2.4856 
1472.8700   90.4547  127.4868    0.2665    7.7312    2.4866 
1472.9400   90.5570  127.4904    0.2667    7.7312    2.4875 
1473.0100   90.6252  127.4063    0.2671    7.7460    2.4883 
1473.0800   90.6865  127.1642    0.2673    7.7465    2.4891 
1473.1500   90.8039  126.9224    0.2676    7.7410    2.4898 
1473.2200   90.8131  126.5582    0.2680    7.7390    2.4906 
1473.2900   90.9727  126.1175    0.2683    7.7173    2.4914 
1473.3600   90.9818  125.5344    0.2684    7.6939    2.4923 
1473.4300   91.1409  124.8652    0.2684    7.6869    2.4933 
1473.5000   91.1513  124.1349    0.2685    7.6645    2.4943 
1473.5700   91.3176  123.3072    0.2686    7.6645    2.4955 
1473.6400   91.3301  122.5269    0.2687    7.6412    2.4963 
1473.7100   91.4601  121.5690    0.2689    7.6412    2.4967 
1473.7800   91.5037  120.4217    0.2692    7.6182    2.4964 
1473.8500   91.6201  119.2270    0.2695    7.6182    2.4953 
1473.9200   91.6926  117.8950    0.2698    7.5890    2.4934 
1473.9900   91.7294  116.5440    0.2701    7.5851    2.4905 
1474.0600   91.8216  115.2867    0.2703    7.5561    2.4868 
1474.1300   91.8567  114.0936    0.2703    7.5396    2.4825 
1474.2000   91.9687  112.8951    0.2703    7.5182    2.4776 
1474.2700   92.0034  111.7977    0.2702    7.4852    2.4724 
1474.3400   92.1169  110.7033    0.2702    7.4747    2.4667 
1474.4100   92.1373  109.5031    0.2701    7.4155    2.4608 
1474.4800   92.2053  108.3722    0.2699    7.4155    2.4549 
