~VERSION INFORMATION
 VERS.                 2.0:   CWLS LOG ASCII STANDARD - VERSION 2.0
 WRAP.                  NO:   SINGLE LINE PER DEPTH STEP
 CREA.                 09/05/2023 10:30:38
#CREATED USING IP VERSION 4.7.2022.12301 BY USER15 ON 09/05/2023 10:30:38

~WELL INFORMATION
#MNEM.UNIT       DATA                          DESCRIPTION MNEMONIC
#---------      ---------------------------   --------------------------
 STRT    .M         800.0300                  : START DEPTH
 STOP    .M         2100.0000                 : STOP DEPTH
 STEP    .M         0.0700                    : STEP VALUE
 NULL    .      -999.0000                     : NULL VALUE
 DATE    .      09/05/2023                    : LAS file Creation Date
 WELL   .      PPWell         : Well Name
 COMP   .                     : Company
 FLD    .                     : Field
 UWI    .                     : Unique Well Identifier (UWI)
 LOC    .                     : Location
 PROV   .                     : Province
 PDAT   .      Mean Sea Level : Permanent Datum
 EPDAT  .      0              : Elevation of Permanent Datum
 LGMEA  .      KB             : Log Measured from
 DRMEA  .      KB             : Drill Measured From
 APDAT  .      10             : Elevation Above Permanent Datum
 RWS    .      -999           : Def_Rw
 WST    .      -999           : Def_Rwt
 SRVC   .      SCH            : Contractor
 GDAT   .      (Undefined)    : Geodatum
 LONG   .      0              : Longitude
 LATI   .      0              : Latitude
 COORDIN.                     : Grid System
 XCOORD .                     : X or East-West Coordinate
 YCOORD .                     : Y or North-South Coordinate

~CURVE INFORMATION
#MNEM              UNIT         API CODE    Curve Type   Comments
#----------  ---------------- ------------  ----------   -----------
 DEPTH      .M                              : Depth       
 DT         .US/F                           : Sonic       Sonic
 GR         .GAPI                           : GammaRay    
 NPHI       .V/V                            : Neutron     Neutron
 RD         .OHMM                           : DeepRes     DeepRes
 RHOB       .G/C3                           : Density     Density

~A  DEPTH     DT        GR       NPHI       RD       RHOB   
# ...
1687.0700   89.1281   68.9771    0.2781    8.0403    2.4715 
1687.1400   89.1632   68.1005    0.2776    8.1278    2.4688 
1687.2100   89.1302   67.2943    0.2775    8.1278    2.4661 
1687.2800   89.1998   66.6864    0.2776    8.1407    2.4634 
1687.3500   89.0611   66.3064    0.2782    8.1424    2.4604 
1687.4200   89.1432   66.1521    0.2789    8.0728    2.4571 
1687.4900   88.9807   66.1061    0.2793    8.0333    2.4537 
1687.5600   89.0523   66.3521    0.2796    7.9722    2.4501 
1687.6300   88.9424   66.7329    0.2798    7.8780    2.4459 
1687.7000   88.8868   66.9741    0.2799    7.8610    2.4410 
1687.7700   88.7958   67.1048    0.2801    7.7644    2.4355 
1687.8400   88.7650   67.2453    0.2802    7.7644    2.4294 
1687.9100   88.7231   67.3746    0.2802    7.6311    2.4221 
1687.9800   88.6450   67.5299    0.2803    7.6311    2.4138 
1688.0500   88.6598   67.6966    0.2803    7.4739    2.4046 
1688.1200   88.5325   68.0100    0.2805    7.4739    2.3953 
1688.1900   88.5652   68.4539    0.2808    7.3045    2.3859 
1688.2600   88.4399   68.9012    0.2812    7.2608    2.3766 
1688.3300   88.5641   69.3266    0.2819    7.1418    2.3678 
1688.4000   88.4975   69.6659    0.2830    7.0449    2.3600 
1688.4700   88.6411   70.1860    0.2845    6.9921    2.3531 
1688.5400   88.6509   70.7844    0.2860    6.8728    2.3470 
1688.6100   88.7918   71.4312    0.2876    6.8611    2.3414 
1688.6800   88.7919   72.0380    0.2896    6.6879    2.3366 
1688.7500   88.9109   72.6218    0.2918    6.6879    2.3323 
1688.8200   88.9699   73.1540    0.2939    6.4817    2.3286 
1688.8900   89.1886   73.6145    0.2962    6.4817    2.3253 
1688.9600   89.2517   74.0629    0.2986    6.3111    2.3222 
1689.0300   89.5124   74.6245    0.3011    6.3026    2.3190 
1689.1000   89.6102   75.2060    0.3035    6.2107    2.3159 
1689.1700   90.0153   75.8192    0.3058    6.1729    2.3128 
1689.2400   90.0395   76.3655    0.3080    6.1326    2.3097 
1689.3100   90.4374   76.7808    0.3101    6.0862    2.3064 
1689.3800   90.5571   77.3064    0.3119    6.0682    2.3034 
1689.4500   90.8460   77.9377    0.3137    6.0048    2.3007 
1689.5200   91.0988   78.6736    0.3153    6.0048    2.2985 
1689.5900   91.2854   79.4045    0.3165    5.9122    2.2965 
1689.6600   91.6022   80.0261    0.3176    5.9122    2.2949 
1689.7300   91.6500   80.5677    0.3184    5.8435    2.2935 
1689.8000   92.1121   81.0246    0.3193    5.8435    2.2925 
1689.8700   92.1289   81.3329    0.3200    5.7985    2.2915 
1689.9400   92.5537   81.5658    0.3209    5.7916    2.2906 
1690.0100   92.5590   81.7686    0.3219    5.7738    2.2898 
1690.0800   92.8833   81.9066    0.3231    5.7630    2.2892 
1690.1500   92.8323   82.1837    0.3243    5.7618    2.2886 
1690.2200   93.0261   82.4437    0.3254    5.7599    2.2881 
1690.2900   93.0892   82.5855    0.3264    5.7605    2.2876 
1690.3600   93.1792   82.6647    0.3274    5.7642    2.2873 
1690.4300   93.2264   82.6423    0.3281    5.7642    2.2869 
1690.5000   93.2597   82.3538    0.3288    5.7713    2.2865 
1690.5700   93.3441   82.1682    0.3293    5.7713    2.2862 
1690.6400   93.3364   82.1866    0.3298    5.7498    2.2861 
1690.7100   93.4918   82.2478    0.3302    5.7498    2.2862 
1690.7800   93.5324   82.2945    0.3307    5.7076    2.2865 
1690.8500   93.6707   82.3653    0.3311    5.6956    2.2869 
1690.9200   93.7397   82.5466    0.3313    5.6709    2.2874 
1690.9900   93.8370   82.8249    0.3313    5.6495    2.2880 
1691.0600   93.9289   83.1563    0.3314    5.6408    2.2888 
1691.1300   94.0103   83.4746    0.3313    5.6198    2.2895 
1691.2000   94.1250   83.8465    0.3313    5.6190    2.2902 
1691.2700   94.1336   84.1719    0.3316    5.6034    2.2910 
1691.3400   94.1581   84.4467    0.3323    5.6034    2.2921 
1691.4100   94.1607   84.7655    0.3330    5.5893    2.2933 
1691.4800   94.1486   84.9637    0.3336    5.5893    2.2945 
1691.5500   94.1413   85.1048    0.3344    5.5667    2.2958 
1691.6200   94.0801   85.4948    0.3351    5.5652    2.2973 
1691.6900   94.0602   85.9750    0.3357    5.5344    2.2988 
1691.7600   94.0187   86.3401    0.3362    5.5207    2.3005 
1691.8300   93.9191   86.8256    0.3366    5.4968    2.3024 
1691.9000   93.9386   87.3353    0.3370    5.4675    2.3048 
1691.9700   93.8822   87.7780    0.3375    5.4571    2.3079 
1692.0400   93.9289   88.0920    0.3378    5.4167    2.3116 
1692.1100   93.9084   88.2422    0.3381    5.4167    2.3157 
1692.1800   93.9339   88.4162    0.3386    5.3913    2.3200 
1692.2500   93.9439   88.7676    0.3391    5.3913    2.3243 
1692.3200   93.9333   89.1037    0.3395    5.3966    2.3285 
1692.3900   93.9587   89.4416    0.3398    5.3966    2.3321 
1692.4600   93.9128   89.7684    0.3400    5.4295    2.3352 
1692.5300   93.9316   89.8366    0.3401    5.4353    2.3377 
1692.6000   93.8742   89.6807    0.3400    5.4667    2.3398 
1692.6700   93.9476   89.5178    0.3399    5.4871    2.3417 
1692.7400   93.8311   89.5347    0.3398    5.4976    2.3434 
1692.8100   93.8899   89.7857    0.3399    5.5160    2.3448 
1692.8800   93.8540   90.0178    0.3399    5.5185    2.3460 
1692.9500   93.8884   90.2829    0.3397    5.5373    2.3472 
1693.0200   93.7631   90.6441    0.3394    5.5373    2.3486 
1693.0900   93.7331   90.7407    0.3389    5.5767    2.3504 
1693.1600   93.6320   90.5413    0.3380    5.5767    2.3525 
1693.2300   93.5845   90.2295    0.3366    5.6015    2.3549 
1693.3000   93.5034   90.0066    0.3352    5.6015    2.3580 
1693.3700   93.4124   90.0386    0.3335    5.5932    2.3615 
1693.4400   93.2055   90.0731    0.3319    5.5906    2.3652 
1693.5100   93.0790   89.8906    0.3304    5.5613    2.3686 
1693.5800   92.8986   89.8270    0.3290    5.5342    2.3721 
1693.6500   92.7764   89.8119    0.3275    5.5250    2.3754 
1693.7200   92.6271   89.8618    0.3262    5.5006    2.3785 
1693.7900   92.4890   89.9824    0.3251    5.5011    2.3813 
1693.8600   92.4178   90.0617    0.3239    5.5176    2.3838 
1693.9300   92.2555   90.0954    0.3230    5.5176    2.3860 
1694.0000   92.2178   90.1812    0.3223    5.5623    2.3878 
1694.0700   92.1257   90.2692    0.3217    5.5623    2.3892 
1694.1400   92.1401   90.2429    0.3211    5.6052    2.3902 
1694.2100   92.0964   90.0921    0.3204    5.6088    2.3912 
1694.2800   92.1698   89.9951    0.3198    5.6452    2.3921 
1694.3500   92.1315   89.9542    0.3191    5.6625    2.3930 
1694.4200   92.2222   89.9372    0.3184    5.6882    2.3941 
1694.4900   92.2203   89.8822    0.3176    5.7218    2.3954 
1694.5600   92.1806   89.7009    0.3170    5.7339    2.3968 
1694.6300   92.2352   89.4418    0.3166    5.7859    2.3983 
1694.7000   92.1871   89.2257    0.3157    5.7859    2.3997 
1694.7700   92.1883   89.1267    0.3149    5.8413    2.4011 
1694.8400   92.1620   89.1347    0.3142    5.8413    2.4026 
1694.9100   92.1462   89.1434    0.3136    5.8848    2.4042 
1694.9800   92.1168   89.0851    0.3128    5.8848    2.4058 
1695.0500   92.0654   89.0420    0.3122    5.8987    2.4074 
1695.1200   92.0663   88.9990    0.3118    5.9015    2.4091 
1695.1900   91.9897   88.9446    0.3116    5.9073    2.4108 
1695.2600   91.9180   89.0660    0.3114    5.9114    2.4126 
1695.3300   91.8742   89.2411    0.3113    5.9253    2.4143 
1695.4000   91.8186   89.3680    0.3114    5.9515    2.4159 
1695.4700   92.0312   89.4619    0.3114    5.9573    2.4173 
1695.5400   92.0003   89.6054    0.3114    6.0088    2.4186 
1695.6100   92.0144   89.7425    0.3114    6.0088    2.4199 
1695.6800   92.0042   89.8668    0.3115    6.0658    2.4209 
1695.7500   92.0349   89.9152    0.3114    6.0658    2.4217 
1695.8200   92.0909   89.9850    0.3113    6.1258    2.4224 
1695.8900   92.1480   90.0270    0.3110    6.1263    2.4229 
1695.9600   92.3905   89.8968    0.3108    6.1850    2.4233 
1696.0300   92.3603   89.8414    0.3105    6.2048    2.4235 
1696.1000   92.7365   89.8256    0.3099    6.2486    2.4236 
1696.1700   92.7661   89.8159    0.3094    6.2917    2.4238 
1696.2400   92.8457   89.8623    0.3088    6.3075    2.4240 
