~VERSION INFORMATION
 VERS.                 2.0:   CWLS LOG ASCII STANDARD - VERSION 2.0
 WRAP.                  NO:   SINGLE LINE PER DEPTH STEP
 CREA.                 09/05/2023 10:30:38
#CREATED USING IP VERSION 4.7.2022.12301 BY USER15 ON 09/05/2023 10:30:38

~WELL INFORMATION
#MNEM.UNIT       DATA                          DESCRIPTION MNEMONIC
#---------      ---------------------------   --------------------------
 STRT    .M         800.0300                  : START DEPTH
 STOP    .M         2100.0000                 : STOP DEPTH
 STEP    .M         0.0700                    : STEP VALUE
 NULL    .      -999.0000                     : NULL VALUE
 DATE    .      09/05/2023                    : LAS file Creation Date
 WELL   .      PPWell         : Well Name
 COMP   .                     : Company
 FLD    .                     : Field
 UWI    .                     : Unique Well Identifier (UWI)
 LOC    .                     : Location
 PROV   .                     : Province
 PDAT   .      Mean Sea Level : Permanent Datum
 EPDAT  .      0              : Elevation of Permanent Datum
 LGMEA  .      KB             : Log Measured from
 DRMEA  .      KB             : Drill Measured From
 APDAT  .      10             : Elevation Above Permanent Datum
 RWS    .      -999           : Def_Rw
 WST    .      -999           : Def_Rwt
 SRVC   .      SCH            : Contractor
 GDAT   .      (Undefined)    : Geodatum
 LONG   .      0              : Longitude
 LATI   .      0              : Latitude
 COORDIN.                     : Grid System
 XCOORD .                     : X or East-West Coordinate
 YCOORD .                     : Y or North-South Coordinate

~CURVE INFORMATION
#MNEM              UNIT         API CODE    Curve Type   Comments
#----------  ---------------- ------------  ----------   -----------
 DEPTH      .M                              : Depth       
 DT         .US/F                           : Sonic       Sonic
 GR         .GAPI                           : GammaRay    
 NPHI       .V/V                            : Neutron     Neutron
 RD         .OHMM                           : DeepRes     DeepRes
 RHOB       .G/C3                           : Density     Density

~A  DEPTH     DT        GR       NPHI       RD       RHOB   
# ...
 892.4300    0.0000   55.9168    0.5172   18.5694    2.3693 
 892.5000    0.0000   55.9269    0.5170   18.3582    2.3702 
 892.5700    0.0000   55.9937    0.5166   18.2210    2.3711 
 892.6400    0.0000   56.1739    0.5158   18.2408    2.3721 
 892.7100    0.0000   56.3298    0.5149   18.2755    2.3731 
 892.7800    0.0000   56.3944    0.5138   18.3270    2.3742 
 892.8500    0.0000   56.3256    0.5130   18.7113    2.3754 
 892.9200    0.0000   56.2681    0.5125   18.7113    2.3767 
 892.9900    0.0000   56.1786    0.5118   19.2330    2.3784 
 893.0600    0.0000   56.1738    0.5113   19.2330    2.3804 
 893.1300    0.0000   56.2746    0.5111   19.9623    2.3827 
 893.2000    0.0000   56.4108    0.5109   19.9623    2.3853 
 893.2700    0.0000   56.5208    0.5104   20.0557    2.3879 
 893.3400    0.0000   56.6244    0.5090   20.0847    2.3904 
 893.4100    0.0000   56.7184    0.5076   20.5046    2.3925 
 893.4800    0.0000   56.7255    0.5063   20.8928    2.3943 
 893.5500    0.0000   56.6335    0.5040   20.9326    2.3957 
 893.6200    0.0000   56.6252    0.5013   21.0371    2.3967 
 893.6900    0.0000   56.6743    0.4981   21.0463    2.3976 
 893.7600    0.0000   56.7197    0.4958   21.3287    2.3983 
 893.8300    0.0000   56.8207    0.4944   21.3287    2.3990 
 893.9000    0.0000   56.9116    0.4937   21.8273    2.3997 
 893.9700    0.0000   57.0466    0.4935   21.8273    2.4003 
 894.0400    0.0000   57.1663    0.4934   22.4418    2.4009 
 894.1100    0.0000   57.2948    0.4935   22.4943    2.4013 
 894.1800    0.0000   57.3989    0.4932   22.4216    2.4015 
 894.2500    0.0000   57.3640    0.4926   22.3870    2.4014 
 894.3200    0.0000   57.3206    0.4921   22.1420    2.4011 
 894.3900    0.0000   57.4282    0.4914   21.8213    2.4008 
 894.4600    0.0000   57.6405    0.4911   21.8792    2.4004 
 894.5300    0.0000   57.7908    0.4914   22.1277    2.4000 
 894.6000    0.0000   57.7869    0.4918   22.1277    2.3996 
 894.6700    0.0000   57.8197    0.4929   22.7417    2.3994 
 894.7400    0.0000   58.1250    0.4943   22.7417    2.3993 
 894.8100    0.0000   58.4105    0.4964   22.1621    2.3993 
 894.8800    0.0000   58.5133    0.4992   22.1621    2.3993 
 894.9500    0.0000   58.6734    0.5018   21.6504    2.3994 
 895.0200    0.0000   58.9278    0.5038   21.5490    2.3995 
 895.0900    0.0000   59.2962    0.5052   21.4609    2.3998 
 895.1600    0.0000   59.6560    0.5060   21.3998    2.4002 
 895.2300    0.0000   59.8458    0.5059   21.2049    2.4009 
 895.3000    0.0000   60.0505    0.5054   20.8372    2.4016 
 895.3700    0.0000   60.2087    0.5049   20.8044    2.4025 
 895.4400    0.0000   60.1971    0.5045   20.5175    2.4033 
 895.5100    0.0000   60.2834    0.5042   20.5175    2.4040 
 895.5800    0.0000   60.5163    0.5042   19.9709    2.4046 
 895.6500    0.0000   60.7102    0.5046   19.9709    2.4051 
 895.7200    0.0000   60.7756    0.5054   19.6446    2.4056 
 895.7900    0.0000   60.8341    0.5062   19.6420    2.4060 
 895.8600    0.0000   60.7854    0.5072   19.2056    2.4064 
 895.9300    0.0000   60.6945    0.5082   19.0586    2.4068 
 896.0000    0.0000   60.7255    0.5089   18.8975    2.4072 
 896.0700    0.0000   60.8401    0.5095   18.7389    2.4074 
 896.1400    0.0000   61.0039    0.5098   18.8757    2.4075 
 896.2100    0.0000   61.2089    0.5102   19.2654    2.4074 
 896.2800    0.0000   61.2666    0.5103   19.2670    2.4072 
 896.3500    0.0000   61.3958    0.5101   19.3653    2.4068 
 896.4200    0.0000   61.5839    0.5104   19.3653    2.4061 
 896.4900    0.0000   61.7698    0.5107   19.3744    2.4053 
 896.5600    0.0000   61.8319    0.5116   19.3744    2.4044 
 896.6300    0.0000   61.8165    0.5122   19.3911    2.4034 
 896.7000    0.0000   61.8205    0.5135   19.3928    2.4023 
 896.7700    0.0000   61.7025    0.5148   19.9467    2.4011 
 896.8400    0.0000   61.5322    0.5157   20.2302    2.3998 
 896.9100    0.0000   61.4361    0.5164   20.3942    2.3984 
 896.9800    0.0000   61.2504    0.5176   20.6232    2.3968 
 897.0500    0.0000   61.1138    0.5192   20.6387    2.3949 
 897.1200    0.0000   61.1406    0.5204   20.7130    2.3927 
 897.1900    0.0000   61.2412    0.5213   20.7130    2.3902 
 897.2600    0.0000   61.2896    0.5217   21.2895    2.3876 
 897.3300    0.0000   61.2328    0.5216   21.2895    2.3850 
 897.4000    0.0000   61.1833    0.5213   21.6525    2.3825 
 897.4700    0.0000   61.1280    0.5207   21.6525    2.3803 
 897.5400    0.0000   61.0932    0.5196   22.7701    2.3783 
 897.6100    0.0000   61.0332    0.5190   23.0173    2.3766 
 897.6800    0.0000   60.9528    0.5190   23.3121    2.3750 
 897.7500    0.0000   61.0463    0.5192   23.5301    2.3735 
 897.8200    0.0000   61.2364    0.5196   23.5905    2.3720 
 897.8900    0.0000   61.4843    0.5195   23.7128    2.3706 
 897.9600    0.0000   61.6978    0.5194   23.7448    2.3691 
 898.0300    0.0000   61.8331    0.5202   24.0821    2.3677 
 898.1000    0.0000   61.8113    0.5211   24.0821    2.3663 
 898.1700    0.0000   61.7756    0.5211   24.2277    2.3651 
 898.2400    0.0000   61.8296    0.5215   24.2277    2.3640 
 898.3100    0.0000   61.8494    0.5223   25.2876    2.3630 
 898.3800    0.0000   61.7930    0.5234   25.3132    2.3622 
 898.4500    0.0000   61.7662    0.5243   25.6010    2.3615 
 898.5200    0.0000   61.8293    0.5253   25.7062    2.3607 
 898.5900    0.0000   62.0128    0.5264   26.2922    2.3600 
 898.6600    0.0000   62.2816    0.5283   26.9065    2.3593 
 898.7300    0.0000   62.5807    0.5298   27.0876    2.3585 
 898.8000    0.0000   62.7377    0.5303   27.6481    2.3577 
 898.8700    0.0000   62.6317    0.5301   27.6481    2.3569 
 898.9400    0.0000   62.4195    0.5298   27.8890    2.3562 
 899.0100    0.0000   62.3789    0.5295   27.8890    2.3556 
 899.0800    0.0000   62.3148    0.5290   28.5466    2.3550 
 899.1500    0.0000   62.1217    0.5279   28.5466    2.3543 
 899.2200    0.0000   62.0738    0.5268   29.3951    2.3535 
 899.2900    0.0000   62.2059    0.5256   29.5003    2.3526 
 899.3600    0.0000   62.2853    0.5249   30.5492    2.3518 
 899.4300    0.0000   62.2023    0.5245   31.1249    2.3509 
 899.5000    0.0000   62.0106    0.5242   31.5566    2.3500 
 899.5700    0.0000   61.9036    0.5241   32.1999    2.3492 
 899.6400    0.0000   61.8637    0.5244   32.2531    2.3484 
 899.7100    0.0000   61.6783    0.5245   32.5376    2.3475 
 899.7800    0.0000   61.2633    0.5243   32.5376    2.3467 
 899.8500    0.0000   61.0675    0.5243   33.6723    2.3459 
 899.9200    0.0000   61.0273    0.5241   33.6723    2.3452 
 899.9900    0.0000   60.8841    0.5241   35.1903    2.3446 
 900.0600    0.0000   60.7399    0.5239   35.1903    2.3442 
 900.1300    0.0000   60.6944    0.5239   35.8905    2.3442 
 900.2000    0.0000   60.7520    0.5240   36.0620    2.3444 
 900.2700    0.0000   60.8253    0.5245   36.5024    2.3447 
 900.3400    0.0000   60.7971    0.5248   36.8497    2.3450 
 900.4100    0.0000   60.7511    0.5247   37.1197    2.3455 
 900.4800    0.0000   60.8157    0.5250   37.7071    2.3459 
 900.5500    0.0000   60.9374    0.5247   37.7065    2.3461 
 900.6200    0.0000   60.8770    0.5244   37.6984    2.3461 
 900.6900    0.0000   60.7239    0.5236   37.6984    2.3460 
 900.7600    0.0000   60.7518    0.5219   37.8549    2.3459 
 900.8300    0.0000   60.7881    0.5195   37.8549    2.3456 
 900.9000    0.0000   60.8130    0.5166   38.9823    2.3453 
 900.9700    0.0000   60.8156    0.5128   39.0285    2.3448 
 901.0400    0.0000   60.6983    0.5097   39.7245    2.3444 
 901.1100    0.0000   60.5338    0.5069   39.9999    2.3440 
 901.1800    0.0000   60.2849    0.5051   39.4814    2.3437 
 901.2500    0.0000   59.9754    0.5043   38.9023    2.3432 
 901.3200    0.0000   59.8337    0.5042   38.8828    2.3427 
 901.3900    0.0000   59.7444    0.5044   38.8167    2.3422 
 901.4600    0.0000   59.5305    0.5049   38.8167    2.3418 
 901.5300    0.0000   59.1767    0.5053   39.0767    2.3414 
 901.6000    0.0000   58.9567    0.5055   39.0767    2.3411 
