~VERSION INFORMATION
 VERS.                 2.0:   CWLS LOG ASCII STANDARD - VERSION 2.0
 WRAP.                  NO:   SINGLE LINE PER DEPTH STEP
 CREA.                 09/05/2023 10:30:38
#CREATED USING IP VERSION 4.7.2022.12301 BY USER15 ON 09/05/2023 10:30:38

~WELL INFORMATION
#MNEM.UNIT       DATA                          DESCRIPTION MNEMONIC
#---------      ---------------------------   --------------------------
 STRT    .M         800.0300                  : START DEPTH
 STOP    .M         2100.0000                 : STOP DEPTH
 STEP    .M         0.0700                    : STEP VALUE
 NULL    .      -999.0000                     : NULL VALUE
 DATE    .      09/05/2023                    : LAS file Creation Date
 WELL   .      PPWell         : Well Name
 COMP   .                     : Company
 FLD    .                     : Field
 UWI    .                     : Unique Well Identifier (UWI)
 LOC    .                     : Location
 PROV   .                     : Province
 PDAT   .      Mean Sea Level : Permanent Datum
 EPDAT  .      0              : Elevation of Permanent Datum
 LGMEA  .      KB             : Log Measured from
 DRMEA  .      KB             : Drill Measured From
 APDAT  .      10             : Elevation Above Permanent Datum
 RWS    .      -999           : Def_Rw
 WST    .      -999           : Def_Rwt
 SRVC   .      SCH            : Contractor
 GDAT   .      (Undefined)    : Geodatum
 LONG   .      0              : Longitude
 LATI   .      0              : Latitude
 COORDIN.                     : Grid System
 XCOORD .                     : X or East-West Coordinate
 YCOORD .                     : Y or North-South Coordinate

~CURVE INFORMATION
#MNEM              UNIT         API CODE    Curve Type   Comments
#----------  ---------------- ------------  ----------   -----------
 DEPTH      .M                              : Depth       
 DT         .US/F                           : Sonic       Sonic
 GR         .GAPI                           : GammaRay    
 NPHI       .V/V                            : Neutron     Neutron
 RD         .OHMM                           : DeepRes     DeepRes
 RHOB       .G/C3                           : Density     Density

~A  DEPTH     DT        GR       NPHI       RD       RHOB   
# ...
1252.7900   99.4921  130.2685    0.2904    5.9488    2.4801 
1252.8600   99.4846  130.3017    0.2900    5.9494    2.4799 
1252.9300   99.4810  130.3309    0.2895    5.9495    2.4799 
1253.0000   99.4727  130.3389    0.2891    5.9496    2.4799 
1253.0700   99.4851  130.4171    0.2886    5.9493    2.4799 
1253.1400   99.4302  130.6357    0.2881    5.9489    2.4799 
1253.2100   99.3666  130.8337    0.2877    5.9486    2.4798 
1253.2800   99.3693  130.9483    0.2873    5.9472    2.4795 
1253.3500   99.3436  131.0049    0.2870    5.9472    2.4791 
1253.4200   99.3523  131.0180    0.2869    5.9456    2.4786 
1253.4900   99.3479  131.1035    0.2870    5.9456    2.4782 
1253.5600   99.3374  131.1587    0.2872    5.9461    2.4777 
1253.6300   99.2966  131.2050    0.2873    5.9461    2.4772 
1253.7000   99.2541  131.3690    0.2874    5.9491    2.4766 
1253.7700   99.2522  131.5395    0.2876    5.9497    2.4760 
1253.8400   99.1744  131.7167    0.2878    5.9502    2.4754 
1253.9100   99.1516  131.9478    0.2879    5.9506    2.4748 
1253.9800   98.9724  132.2683    0.2881    5.9496    2.4742 
1254.0500   98.9824  132.6266    0.2884    5.9477    2.4737 
1254.1200   98.7781  132.7730    0.2888    5.9475    2.4734 
1254.1900   98.7951  132.6521    0.2891    5.9454    2.4732 
1254.2600   98.6484  132.5643    0.2892    5.9454    2.4730 
1254.3300   98.6275  132.5258    0.2894    5.9457    2.4729 
1254.4000   98.5590  132.4223    0.2894    5.9457    2.4730 
1254.4700   98.5089  132.3551    0.2892    5.9486    2.4731 
1254.5400   98.4999  132.2539    0.2886    5.9486    2.4731 
1254.6100   98.4457  132.2665    0.2880    5.9575    2.4732 
1254.6800   98.3840  132.4281    0.2875    5.9604    2.4732 
1254.7500   98.3481  132.5745    0.2868    5.9744    2.4734 
1254.8200   98.3603  132.6633    0.2861    5.9878    2.4736 
1254.8900   98.3185  132.6788    0.2855    6.0027    2.4737 
1254.9600   98.2988  132.6695    0.2850    6.0435    2.4738 
1255.0300   98.2586  132.7633    0.2845    6.0456    2.4739 
1255.1000   98.2418  132.8054    0.2841    6.1296    2.4737 
1255.1700   98.2194  132.6933    0.2837    6.1296    2.4735 
1255.2400   98.2180  132.4026    0.2834    6.2161    2.4733 
1255.3100   98.4103  132.0092    0.2832    6.2161    2.4733 
1255.3800   98.5870  131.6182    0.2831    6.2664    2.4734 
1255.4500   98.6865  131.1482    0.2828    6.2711    2.4737 
1255.5200   99.0889  130.7323    0.2827    6.2930    2.4743 
1255.5900   99.1037  130.6653    0.2825    6.3038    2.4751 
1255.6600   99.1749  130.6510    0.2826    6.3144    2.4760 
1255.7300   99.1595  130.4811    0.2828    6.3288    2.4768 
1255.8000   99.2004  130.3592    0.2828    6.3334    2.4774 
1255.8700   99.1924  130.3401    0.2829    6.3547    2.4779 
1255.9400   99.1599  130.3251    0.2829    6.3547    2.4782 
1256.0100   99.1586  130.2810    0.2829    6.3808    2.4783 
1256.0800   99.1233  130.0660    0.2830    6.3808    2.4783 
1256.1500   99.1074  129.8916    0.2828    6.4060    2.4782 
1256.2200   99.0871  129.8013    0.2828    6.4060    2.4782 
1256.2900   99.0582  129.7883    0.2828    6.4249    2.4784 
1256.3600   99.0334  129.7044    0.2829    6.4289    2.4787 
1256.4300   98.9871  129.5303    0.2830    6.4407    2.4792 
1256.5000   98.9321  129.5713    0.2829    6.4492    2.4798 
1256.5700   99.0170  129.5008    0.2829    6.4553    2.4806 
1256.6400   99.0357  129.3064    0.2830    6.4672    2.4813 
1256.7100   99.0911  129.1301    0.2830    6.4685    2.4820 
1256.7800   99.0488  129.1434    0.2829    6.4812    2.4826 
1256.8500   99.0008  129.1540    0.2829    6.4812    2.4831 
1256.9200   98.9896  129.0094    0.2828    6.4967    2.4834 
1256.9900   98.9540  128.8473    0.2827    6.4967    2.4836 
1257.0600   98.9552  128.7280    0.2826    6.5193    2.4838 
1257.1300   98.9250  128.7031    0.2825    6.5196    2.4841 
1257.2000   98.9308  128.6997    0.2824    6.5424    2.4845 
1257.2700   98.8788  128.7722    0.2825    6.5505    2.4848 
1257.3400   98.9732  128.7773    0.2825    6.5641    2.4852 
1257.4100   98.9432  128.6348    0.2825    6.5780    2.4857 
1257.4800   98.9640  128.7475    0.2824    6.5834    2.4861 
1257.5500   98.9509  128.9008    0.2824    6.5995    2.4864 
1257.6200   98.9382  129.0409    0.2823    6.5996    2.4865 
1257.6900   98.9422  129.3393    0.2821    6.6041    2.4865 
1257.7600   98.9574  129.6976    0.2818    6.6041    2.4865 
1257.8300   98.9523  129.8173    0.2815    6.5964    2.4864 
1257.9000   98.9175  129.7281    0.2812    6.5964    2.4863 
1257.9700   98.9294  129.6845    0.2809    6.5876    2.4864 
1258.0400   98.8898  129.6898    0.2808    6.5866    2.4865 
1258.1100   98.9021  129.7829    0.2809    6.5816    2.4867 
1258.1800   98.9084  129.8267    0.2810    6.5789    2.4868 
1258.2500   98.9422  129.7818    0.2812    6.5763    2.4870 
1258.3200   98.9298  129.8786    0.2815    6.5725    2.4871 
1258.3900   98.9590  130.0557    0.2817    6.5722    2.4871 
1258.4600   98.9694  130.2224    0.2819    6.5707    2.4869 
1258.5300   99.0295  130.3582    0.2820    6.5707    2.4867 
1258.6000   99.0396  130.4482    0.2821    6.5715    2.4865 
1258.6700   99.0777  130.4586    0.2820    6.5715    2.4864 
1258.7400   99.0903  130.5077    0.2818    6.5701    2.4862 
1258.8100   99.1060  130.5789    0.2816    6.5701    2.4860 
1258.8800   99.1098  130.6240    0.2814    6.5699    2.4859 
1258.9500   99.1352  130.5443    0.2813    6.5699    2.4858 
1259.0200   99.1575  130.2292    0.2812    6.5696    2.4857 
1259.0900   99.1632  129.7553    0.2811    6.5694    2.4857 
1259.1600   99.2000  129.4472    0.2812    6.5682    2.4859 
1259.2300   99.2057  129.6736    0.2813    6.5658    2.4861 
1259.3000   99.2266  130.0848    0.2816    6.5654    2.4863 
1259.3700   99.2320  130.1502    0.2819    6.5608    2.4863 
1259.4400   99.2702  130.1246    0.2822    6.5608    2.4862 
1259.5100   99.2733  130.1258    0.2826    6.5498    2.4860 
1259.5800   99.2701  130.0929    0.2829    6.5498    2.4856 
1259.6500   99.2760  130.0932    0.2831    6.5237    2.4850 
1259.7200   99.3257  130.2069    0.2833    6.5228    2.4844 
1259.7900   99.3849  130.3478    0.2834    6.4900    2.4839 
1259.8600   99.3977  130.3345    0.2837    6.4775    2.4834 
1259.9300   99.4819  130.3350    0.2838    6.4422    2.4830 
1260.0000   99.4705  130.3904    0.2838    6.4040    2.4825 
1260.0700   99.5545  130.2589    0.2839    6.3794    2.4822 
1260.1400   99.5887  130.0422    0.2841    6.2998    2.4820 
1260.2100   99.6668  129.9862    0.2843    6.2998    2.4818 
1260.2800   99.6806  130.2738    0.2843    6.1968    2.4815 
1260.3500   99.7206  130.4510    0.2843    6.1968    2.4811 
1260.4200   99.7319  130.4674    0.2845    6.1281    2.4808 
1260.4900   99.7754  130.6503    0.2848    6.1281    2.4805 
1260.5600   99.7809  130.7652    0.2852    6.0893    2.4802 
1260.6300   99.8757  130.7120    0.2857    6.0842    2.4799 
1260.7000   99.8865  130.7252    0.2863    6.0610    2.4795 
1260.7700  100.0022  130.8144    0.2870    6.0479    2.4792 
1260.8400  100.0111  130.8657    0.2876    6.0332    2.4788 
1260.9100  100.1668  130.7819    0.2882    6.0106    2.4785 
1260.9800  100.2241  130.5558    0.2887    6.0052    2.4783 
1261.0500  100.3507  130.3409    0.2891    5.9745    2.4781 
1261.1200  100.4796  130.3275    0.2893    5.9745    2.4780 
1261.1900  100.5468  130.3659    0.2895    5.9409    2.4778 
1261.2600  100.7238  130.3292    0.2898    5.9409    2.4776 
1261.3300  100.7368  130.1844    0.2901    5.9104    2.4774 
1261.4000  100.9245  130.3026    0.2903    5.9104    2.4771 
1261.4700  100.9429  130.5676    0.2907    5.8870    2.4767 
1261.5400  101.0888  130.5906    0.2910    5.8810    2.4763 
1261.6100  101.1042  130.6893    0.2913    5.8657    2.4761 
1261.6800  101.1996  130.8022    0.2914    5.8533    2.4760 
1261.7500  101.2940  130.7422    0.2913    5.8447    2.4761 
1261.8200  101.3689  130.4626    0.2912    5.8255    2.4762 
1261.8900  101.4709  129.9492    0.2909    5.8237    2.4763 
1261.9600  101.5153  129.5521    0.2906    5.7974    2.4763 
