~VERSION INFORMATION
 VERS.                 2.0:   CWLS LOG ASCII STANDARD - VERSION 2.0
 WRAP.                  NO:   SINGLE LINE PER DEPTH STEP
 CREA.                 09/05/2023 10:30:38
#CREATED USING IP VERSION 4.7.2022.12301 BY USER15 ON 09/05/2023 10:30:38

~WELL INFORMATION
#MNEM.UNIT       DATA                          DESCRIPTION MNEMONIC
#---------      ---------------------------   --------------------------
 STRT    .M         800.0300                  : START DEPTH
 STOP    .M         2100.0000                 : STOP DEPTH
 STEP    .M         0.0700                    : STEP VALUE
 NULL    .      -999.0000                     : NULL VALUE
 DATE    .      09/05/2023                    : LAS file Creation Date
 WELL   .      PPWell         : Well Name
 COMP   .                     : Company
 FLD    .                     : Field
 UWI    .                     : Unique Well Identifier (UWI)
 LOC    .                     : Location
 PROV   .                     : Province
 PDAT   .      Mean Sea Level : Permanent Datum
 EPDAT  .      0              : Elevation of Permanent Datum
 LGMEA  .      KB             : Log Measured from
 DRMEA  .      KB             : Drill Measured From
 APDAT  .      10             : Elevation Above Permanent Datum
 RWS    .      -999           : Def_Rw
 WST    .      -999           : Def_Rwt
 SRVC   .      SCH            : Contractor
 GDAT   .      (Undefined)    : Geodatum
 LONG   .      0              : Longitude
 LATI   .      0              : Latitude
 COORDIN.                     : Grid System
 XCOORD .                     : X or East-West Coordinate
 YCOORD .                     : Y or North-South Coordinate

~CURVE INFORMATION
#MNEM              UNIT         API CODE    Curve Type   Comments
#----------  ---------------- ------------  ----------   -----------
 DEPTH      .M                              : Depth       
 DT         .US/F                           : Sonic       Sonic
 GR         .GAPI                           : GammaRay    
 NPHI       .V/V                            : Neutron     Neutron
 RD         .OHMM                           : DeepRes     DeepRes
 RHOB       .G/C3                           : Density     Density

~A  DEPTH     DT        GR       NPHI       RD       RHOB   
# ...
1400.6300   94.9568  121.0544    0.2989    5.6297    2.4298 
1400.7000   95.0504  121.0565    0.2989    5.6297    2.4311 
1400.7700   95.1012  121.0929    0.2990    5.6005    2.4324 
1400.8400   95.1014  121.1832    0.2990    5.5980    2.4336 
1400.9100   95.0875  121.3188    0.2989    5.5771    2.4346 
1400.9800   95.1316  121.4106    0.2990    5.5671    2.4357 
1401.0500   95.1263  121.4838    0.2991    5.5552    2.4368 
1401.1200   95.1845  121.5887    0.2990    5.5397    2.4380 
1401.1900   95.2269  121.7392    0.2988    5.5345    2.4392 
1401.2600   95.1904  121.9038    0.2984    5.5122    2.4403 
1401.3300   95.1551  121.9974    0.2982    5.5122    2.4413 
1401.4000   95.1372  122.0878    0.2980    5.4839    2.4421 
1401.4700   95.0956  122.2156    0.2977    5.4839    2.4426 
1401.5400   95.0865  122.2783    0.2977    5.4577    2.4428 
1401.6100   95.0160  122.4325    0.2978    5.4577    2.4429 
1401.6800   95.0304  122.6374    0.2980    5.4334    2.4428 
1401.7500   95.0747  122.8608    0.2979    5.4286    2.4427 
1401.8200   95.1378  123.0913    0.2977    5.4056    2.4423 
1401.8900   95.1629  123.2860    0.2973    5.3896    2.4419 
1401.9600   95.1056  123.2574    0.2969    5.3785    2.4415 
1402.0300   95.1035  123.1087    0.2963    5.3575    2.4411 
1402.1000   95.1691  122.9558    0.2958    5.3553    2.4407 
1402.1700   95.2138  122.8798    0.2955    5.3360    2.4403 
1402.2400   95.2767  122.9520    0.2953    5.3360    2.4400 
1402.3100   95.2598  123.2428    0.2955    5.3125    2.4398 
1402.3800   95.1788  123.5623    0.2957    5.3125    2.4398 
1402.4500   95.1669  123.8264    0.2958    5.2927    2.4399 
1402.5200   95.2045  124.1056    0.2961    5.2926    2.4402 
1402.5900   95.2334  124.2761    0.2964    5.2720    2.4406 
1402.6600   95.2220  124.3892    0.2968    5.2651    2.4414 
1402.7300   95.2237  124.4730    0.2971    5.2473    2.4423 
1402.8000   95.2466  124.5038    0.2974    5.2298    2.4432 
1402.8700   95.3044  124.7065    0.2978    5.2206    2.4439 
1402.9400   95.3608  125.0730    0.2982    5.1943    2.4446 
1403.0100   95.3888  125.3430    0.2986    5.1937    2.4453 
1403.0800   95.3726  125.4256    0.2990    5.1588    2.4461 
1403.1500   95.3627  125.5888    0.2992    5.1588    2.4468 
1403.2200   95.3655  125.7369    0.2993    5.1235    2.4474 
1403.2900   95.3727  126.0235    0.2989    5.1235    2.4482 
1403.3600   95.3877  126.2393    0.2987    5.0928    2.4490 
1403.4300   95.3489  126.3108    0.2983    5.0896    2.4498 
1403.5000   95.3109  126.4794    0.2978    5.0688    2.4504 
1403.5700   95.3252  126.6040    0.2974    5.0581    2.4507 
1403.6400   95.3127  126.4632    0.2972    5.0450    2.4509 
1403.7100   95.3537  126.3748    0.2974    5.0266    2.4512 
1403.7800   95.3865  126.4513    0.2975    5.0216    2.4516 
1403.8500   95.3932  126.4882    0.2977    4.9973    2.4521 
1403.9200   95.4069  126.4657    0.2981    4.9973    2.4526 
1403.9900   95.4178  126.5879    0.2983    4.9756    2.4533 
1404.0600   95.4598  126.5844    0.2985    4.9756    2.4541 
1404.1300   95.4697  126.3868    0.2987    4.9578    2.4548 
1404.2000   95.5082  126.3326    0.2988    4.9578    2.4552 
1404.2700   95.5324  126.4182    0.2991    4.9456    2.4553 
1404.3400   95.4975  126.5577    0.2994    4.9429    2.4550 
1404.4100   95.5301  126.4562    0.2998    4.9342    2.4545 
1404.4800   95.6472  126.1235    0.3001    4.9279    2.4538 
1404.5500   95.6762  125.9024    0.3007    4.9240    2.4531 
1404.6200   95.6927  125.8609    0.3013    4.9161    2.4524 
1404.6900   95.7161  125.7981    0.3019    4.9147    2.4518 
1404.7600   95.7256  125.8298    0.3022    4.8999    2.4511 
1404.8300   95.7373  126.0615    0.3023    4.8999    2.4505 
1404.9000   95.7546  126.2565    0.3025    4.8799    2.4502 
1404.9700   95.8279  126.1995    0.3025    4.8799    2.4501 
1405.0400   95.8365  126.0487    0.3023    4.8657    2.4502 
1405.1100   95.7960  126.0486    0.3022    4.8654    2.4506 
1405.1800   95.7734  126.0636    0.3023    4.8578    2.4510 
1405.2500   95.8058  126.0245    0.3024    4.8551    2.4517 
1405.3200   95.8272  126.0003    0.3026    4.8508    2.4523 
1405.3900   95.8632  126.0392    0.3027    4.8462    2.4528 
1405.4600   95.8733  126.1906    0.3027    4.8437    2.4533 
1405.5300   95.8802  126.3442    0.3028    4.8360    2.4539 
1405.6000   95.9514  126.3664    0.3030    4.8360    2.4546 
1405.6700   95.9534  126.4877    0.3032    4.8270    2.4555 
1405.7400   95.9433  126.7704    0.3035    4.8270    2.4564 
1405.8100   95.9396  126.9640    0.3037    4.8190    2.4576 
1405.8800   95.9293  126.9472    0.3039    4.8190    2.4590 
1405.9500   95.9156  126.8365    0.3039    4.8084    2.4603 
1406.0200   95.9149  126.7404    0.3038    4.8071    2.4617 
1406.0900   95.9419  126.7912    0.3036    4.7999    2.4630 
1406.1600   95.9236  126.9303    0.3034    4.7960    2.4643 
1406.2300   95.8618  126.7698    0.3033    4.7919    2.4657 
1406.3000   95.8728  126.5193    0.3033    4.7857    2.4670 
1406.3700   95.8925  126.5939    0.3036    4.7839    2.4682 
1406.4400   95.9145  126.7435    0.3038    4.7742    2.4694 
1406.5100   95.9310  126.8812    0.3040    4.7742    2.4706 
1406.5800   95.9287  127.1874    0.3043    4.7635    2.4717 
1406.6500   95.8756  127.5445    0.3044    4.7635    2.4728 
1406.7200   95.8528  127.8720    0.3043    4.7594    2.4737 
1406.7900   95.8699  128.0362    0.3040    4.7594    2.4743 
1406.8600   95.8681  128.1267    0.3036    4.7637    2.4749 
1406.9300   95.8797  128.3039    0.3031    4.7647    2.4755 
1407.0000   95.8659  128.5568    0.3024    4.7648    2.4759 
1407.0700   95.8964  128.7417    0.3015    4.7648    2.4761 
1407.1400   95.8454  128.9078    0.3007    4.7638    2.4762 
1407.2100   95.8382  129.0437    0.2999    4.7617    2.4761 
1407.2800   95.9067  129.2062    0.2993    4.7616    2.4760 
1407.3500   95.9067  129.1914    0.2987    4.7598    2.4756 
1407.4200   95.8838  129.0443    0.2982    4.7598    2.4752 
1407.4900   95.8864  128.8991    0.2980    4.7580    2.4748 
1407.5600   95.9195  128.6733    0.2977    4.7580    2.4745 
1407.6300   95.9225  128.4285    0.2973    4.7642    2.4745 
1407.7000   95.8272  128.2787    0.2970    4.7645    2.4746 
1407.7700   95.8229  128.2762    0.2971    4.7731    2.4748 
1407.8400   95.8565  128.3569    0.2972    4.7765    2.4751 
1407.9100   95.8319  128.1400    0.2973    4.7801    2.4754 
1407.9800   95.8501  127.9157    0.2974    4.7841    2.4756 
1408.0500   95.8558  127.9674    0.2976    4.7855    2.4756 
1408.1200   95.8468  128.0584    0.2977    4.7903    2.4757 
1408.1900   95.8251  128.0655    0.2976    4.7903    2.4758 
1408.2600   95.8331  128.1692    0.2973    4.7987    2.4759 
1408.3300   95.8179  128.2883    0.2970    4.7987    2.4760 
1408.4000   95.8102  128.5295    0.2968    4.8027    2.4762 
1408.4700   95.8009  128.7166    0.2965    4.8027    2.4766 
1408.5400   95.7712  128.8155    0.2962    4.8017    2.4769 
1408.6100   95.7560  128.9276    0.2960    4.8015    2.4771 
1408.6800   95.7408  129.1428    0.2957    4.8058    2.4772 
1408.7500   95.6739  129.3815    0.2951    4.8083    2.4773 
1408.8200   95.6621  129.4508    0.2948    4.8156    2.4775 
1408.8900   95.7160  129.4239    0.2943    4.8272    2.4776 
1408.9600   95.7125  129.4257    0.2941    4.8297    2.4776 
1409.0300   95.6843  129.4176    0.2935    4.8453    2.4776 
1409.1000   95.6961  129.3407    0.2930    4.8453    2.4776 
1409.1700   95.6984  129.1593    0.2928    4.8555    2.4777 
1409.2400   95.6476  129.0492    0.2927    4.8555    2.4778 
1409.3100   95.6249  129.0942    0.2927    4.8647    2.4777 
1409.3800   95.6604  129.0324    0.2926    4.8647    2.4776 
1409.4500   95.6545  128.9193    0.2926    4.8726    2.4773 
1409.5200   95.6262  128.8660    0.2927    4.8748    2.4769 
1409.5900   95.6674  128.9088    0.2926    4.8805    2.4766 
1409.6600   95.6748  129.1328    0.2925    4.8854    2.4762 
1409.7300   95.6195  129.2832    0.2922    4.8889    2.4758 
1409.8000   95.5872  129.1485    0.2920    4.8972    2.4756 
