~VERSION INFORMATION
 VERS.                 2.0:   CWLS LOG ASCII STANDARD - VERSION 2.0
 WRAP.                  NO:   SINGLE LINE PER DEPTH STEP
 CREA.                 09/05/2023 10:30:38
#CREATED USING IP VERSION 4.7.2022.12301 BY USER15 ON 09/05/2023 10:30:38

~WELL INFORMATION
#MNEM.UNIT       DATA                          DESCRIPTION MNEMONIC
#---------      ---------------------------   --------------------------
 STRT    .M         800.0300                  : START DEPTH
 STOP    .M         2100.0000                 : STOP DEPTH
 STEP    .M         0.0700                    : STEP VALUE
 NULL    .      -999.0000                     : NULL VALUE
 DATE    .      09/05/2023                    : LAS file Creation Date
 WELL   .      PPWell         : Well Name
 COMP   .                     : Company
 FLD    .                     : Field
 UWI    .                     : Unique Well Identifier (UWI)
 LOC    .                     : Location
 PROV   .                     : Province
 PDAT   .      Mean Sea Level : Permanent Datum
 EPDAT  .      0              : Elevation of Permanent Datum
 LGMEA  .      KB             : Log Measured from
 DRMEA  .      KB             : Drill Measured From
 APDAT  .      10             : Elevation Above Permanent Datum
 RWS    .      -999           : Def_Rw
 WST    .      -999           : Def_Rwt
 SRVC   .      SCH            : Contractor
 GDAT   .      (Undefined)    : Geodatum
 LONG   .      0              : Longitude
 LATI   .      0              : Latitude
 COORDIN.                     : Grid System
 XCOORD .                     : X or East-West Coordinate
 YCOORD .                     : Y or North-South Coordinate

~CURVE INFORMATION
#MNEM              UNIT         API CODE    Curve Type   Comments
#----------  ---------------- ------------  ----------   -----------
 DEPTH      .M                              : Depth       
 DT         .US/F                           : Sonic       Sonic
 GR         .GAPI                           : GammaRay    
 NPHI       .V/V                            : Neutron     Neutron
 RD         .OHMM                           : DeepRes     DeepRes
 RHOB       .G/C3                           : Density     Density

~A  DEPTH     DT        GR       NPHI       RD       RHOB   
# ...
1899.5900   63.6887  162.5725    0.0524  104.7376    2.6236 
1899.6600   63.7186  162.3963    0.0520  104.7376    2.6239 
1899.7300   63.6998  162.1956    0.0516  104.3165    2.6239 
1899.8000   63.6718  161.5670    0.0512  104.3028    2.6234 
1899.8700   63.7053  160.9637    0.0507  103.7284    2.6227 
1899.9400   63.6751  160.5616    0.0502  103.5099    2.6219 
1900.0100   63.6249  159.9353    0.0495  102.9338    2.6209 
1900.0800   63.4952  158.9909    0.0488  102.3105    2.6197 
1900.1500   63.4400  158.2441    0.0480  101.7037    2.6186 
1900.2200   63.3183  157.8078    0.0473   99.7417    2.6175 
1900.2900   63.9353  157.4805    0.0466   99.7417    2.6164 
1900.3600   63.8765  157.2936    0.0460   99.3968    2.6152 
1900.4300   63.7754  157.0444    0.0454   99.3968    2.6138 
1900.5000   63.7509  156.8964    0.0450   99.0267    2.6120 
1900.5700   63.5922  156.8164    0.0445   99.0267    2.6101 
1900.6400   63.6218  156.6578    0.0441   98.4674    2.6078 
1900.7100   63.4297  156.6151    0.0437   98.3924    2.6054 
1900.7800   63.4606  156.7896    0.0434   98.1289    2.6030 
1900.8500   63.2833  156.5111    0.0431   97.9792    2.6006 
1900.9200   63.3331  156.1432    0.0428   97.6631    2.5984 
1900.9900   63.2280  155.9161    0.0425   97.1764    2.5963 
1901.0600   63.2355  155.5863    0.0423   96.9980    2.5942 
1901.1300   63.1928  155.2152    0.0421   95.9839    2.5923 
1901.2000   63.1596  154.7127    0.0419   95.9839    2.5904 
1901.2700   63.1400  154.0816    0.0418   94.6651    2.5886 
1901.3400   63.0642  153.5987    0.0418   94.6651    2.5871 
1901.4100   63.0532  153.4879    0.0417   93.1782    2.5858 
1901.4800   63.0693  153.5090    0.0417   93.1782    2.5846 
1901.5500   63.0317  153.3225    0.0417   92.4285    2.5835 
1901.6200   63.0129  152.9625    0.0416   92.2355    2.5824 
1901.6900   62.9626  152.6190    0.0415   91.7515    2.5812 
1901.7600   63.0219  152.5247    0.0414   91.3575    2.5800 
1901.8300   62.9816  152.6735    0.0413   91.0540    2.5788 
1901.9000   63.0422  152.7390    0.0411   90.3694    2.5778 
1901.9700   63.0844  152.7252    0.0410   90.2943    2.5769 
1902.0400   63.1121  152.7184    0.0408   89.1784    2.5760 
1902.1100   63.1994  152.5410    0.0407   89.1784    2.5753 
1902.1800   63.2246  152.2791    0.0406   88.7585    2.5747 
1902.2500   63.3349  152.1564    0.0405   88.7585    2.5741 
1902.3200   63.3752  152.0259    0.0405   88.1358    2.5734 
1902.3900   63.4296  151.6258    0.0405   88.1049    2.5725 
1902.4600   63.4701  151.2837    0.0405   87.9245    2.5715 
1902.5300   63.5145  151.0673    0.0406   87.8503    2.5704 
1902.6000   63.5616  150.5810    0.0406   87.5719    2.5693 
1902.6700   63.6010  149.7804    0.0408   87.2510    2.5680 
1902.7400   63.6354  149.0195    0.0409   87.1501    2.5666 
1902.8100   63.6776  148.4790    0.0411   86.7935    2.5654 
1902.8800   63.7356  148.0790    0.0414   86.7935    2.5645 
1902.9500   63.7695  147.8675    0.0418   85.8230    2.5635 
1903.0200   63.8966  147.6663    0.0422   85.8230    2.5625 
1903.0900   63.9295  147.3848    0.0427   84.5912    2.5613 
1903.1600   64.0633  146.9753    0.0431   84.5912    2.5600 
1903.2300   64.1320  146.4730    0.0436   83.9487    2.5585 
1903.3000   64.2533  145.7860    0.0441   83.8494    2.5568 
1903.3700   64.3401  145.0125    0.0445   83.0619    2.5550 
1903.4400   64.4123  144.2381    0.0450   82.5834    2.5533 
1903.5100   64.4958  143.3212    0.0454   81.9258    2.5516 
1903.5800   64.5634  142.4522    0.0459   80.8434    2.5500 
1903.6500   64.6901  141.4759    0.0463   80.5058    2.5482 
1903.7200   64.7609  140.4147    0.0468   78.3208    2.5464 
1903.7900   64.8864  139.7020    0.0472   78.3208    2.5444 
1903.8600   64.9205  139.4017    0.0477   75.8980    2.5422 
1903.9300   65.0748  139.1857    0.0482   75.8980    2.5398 
1904.0000   65.1214  139.0059    0.0487   73.6505    2.5375 
1904.0700   65.2585  138.8622    0.0492   73.6505    2.5356 
1904.1400   65.3158  138.5731    0.0497   71.7927    2.5342 
1904.2100   65.4344  138.3681    0.0502   71.2673    2.5334 
1904.2800   65.5251  138.2494    0.0508   70.1932    2.5331 
1904.3500   65.5940  138.0821    0.0515   69.2612    2.5332 
1904.4200   65.6683  138.0269    0.0522   68.6336    2.5337 
1904.4900   65.7385  137.8685    0.0530   67.1069    2.5342 
1904.5600   65.8011  137.5673    0.0538   66.9986    2.5347 
1904.6300   65.8434  137.1940    0.0547   64.8147    2.5349 
1904.7000   65.9105  136.8118    0.0556   64.8147    2.5347 
1904.7700   65.9319  136.3541    0.0563   62.6646    2.5343 
1904.8400   66.0084  135.7987    0.0569   62.6646    2.5336 
1904.9100   66.0009  135.0070    0.0574   60.8846    2.5331 
1904.9800   66.1050  134.0524    0.0579   60.7649    2.5325 
1905.0500   66.1309  133.2241    0.0582   59.0063    2.5321 
1905.1200   66.2039  132.5533    0.0586   58.2269    2.5319 
1905.1900   66.2560  131.8513    0.0590   57.2703    2.5319 
1905.2600   66.2625  130.9380    0.0594   56.0955    2.5318 
1905.3300   66.2738  129.8728    0.0599   55.6947    2.5315 
1905.4000   66.2712  128.6957    0.0607   54.1378    2.5308 
1905.4700   66.2474  127.4564    0.0615   54.1378    2.5298 
1905.5400   66.2393  126.1249    0.0625   52.4200    2.5285 
1905.6100   66.2236  124.7658    0.0638   52.4200    2.5270 
1905.6800   66.2210  123.4183    0.0653   50.9090    2.5254 
1905.7500   66.1679  121.9555    0.0671   50.9090    2.5240 
1905.8200   66.1301  120.4812    0.0690   49.7301    2.5228 
1905.8900   66.1693  119.3400    0.0711   49.5227    2.5218 
1905.9600   66.1846  118.2966    0.0731   48.8072    2.5210 
1906.0300   66.2294  117.1445    0.0749   48.3425    2.5204 
1906.1000   66.2740  115.9515    0.0766   48.0094    2.5202 
1906.1700   66.3247  114.5713    0.0780   47.4227    2.5203 
1906.2400   66.4172  113.1791    0.0791   47.2894    2.5205 
1906.3100   66.4670  111.9711    0.0799   46.2945    2.5209 
1906.3800   66.6005  110.7397    0.0806   46.2945    2.5213 
1906.4500   66.6434  109.1114    0.0813   44.7810    2.5217 
1906.5200   66.7566  107.4966    0.0820   44.7810    2.5218 
1906.5900   66.7701  106.2267    0.0828   42.9193    2.5214 
1906.6600   66.9121  105.1695    0.0838   42.9193    2.5198 
1906.7300   66.9583  103.9816    0.0849   41.3532    2.5171 
1906.8000   67.0052  102.5842    0.0864   40.8689    2.5128 
1906.8700   67.1621  101.0633    0.0880   40.0565    2.5068 
1906.9400   67.2828   99.5849    0.0898   39.3057    2.4998 
1907.0100   67.4630   98.2657    0.0918   39.0225    2.4928 
1907.0800   67.5434   96.8805    0.0936   38.2781    2.4867 
1907.1500   67.8483   95.5133    0.0955   38.2540    2.4819 
1907.2200   67.5977   94.3821    0.0974   37.5130    2.4791 
1907.2900   67.4567   93.4560    0.0992   37.5130    2.4781 
1907.3600   67.5281   92.7681    0.1010   36.9098    2.4787 
1907.4300   67.7181   92.2711    0.1028   36.9098    2.4803 
1907.5000   67.8273   91.5280    0.1047   35.6330    2.4821 
1907.5700   67.9284   90.7580    0.1067   35.5239    2.4835 
1907.6400   68.0860   90.2912    0.1088   34.6227    2.4846 
1907.7100   68.1553   90.0261    0.1111   34.1931    2.4854 
1907.7800   68.2988   89.7319    0.1135   33.5904    2.4856 
1907.8500   68.3472   89.3140    0.1160   32.8015    2.4853 
1907.9200   68.4837   88.5748    0.1185   32.5967    2.4845 
1907.9900   68.5280   87.5500    0.1210   31.7178    2.4831 
1908.0600   68.6512   86.6049    0.1233   31.7178    2.4812 
1908.1300   68.6940   85.6378    0.1253   30.7509    2.4789 
1908.2000   68.8127   84.6573    0.1271   30.7509    2.4763 
1908.2700   68.8428   83.9046    0.1288   29.7878    2.4739 
1908.3400   69.0488   83.1744    0.1303   29.7878    2.4716 
1908.4100   69.1116   82.4411    0.1317   29.1537    2.4698 
1908.4800   69.3404   81.8324    0.1330   29.0281    2.4685 
1908.5500   69.4488   81.2304    0.1343   28.6346    2.4677 
1908.6200   69.6474   80.6152    0.1355   28.3618    2.4673 
1908.6900   69.7897   80.2691    0.1366   28.2301    2.4673 
1908.7600   69.9318   79.9143    0.1376   27.9816    2.4676 
