~VERSION INFORMATION
 VERS.                 2.0:   CWLS LOG ASCII STANDARD - VERSION 2.0
 WRAP.                  NO:   SINGLE LINE PER DEPTH STEP
 CREA.                 09/05/2023 10:30:38
#CREATED USING IP VERSION 4.7.2022.12301 BY USER15 ON 09/05/2023 10:30:38

~WELL INFORMATION
#MNEM.UNIT       DATA                          DESCRIPTION MNEMONIC
#---------      ---------------------------   --------------------------
 STRT    .M         800.0300                  : START DEPTH
 STOP    .M         2100.0000                 : STOP DEPTH
 STEP    .M         0.0700                    : STEP VALUE
 NULL    .      -999.0000                     : NULL VALUE
 DATE    .      09/05/2023                    : LAS file Creation Date
 WELL   .      PPWell         : Well Name
 COMP   .                     : Company
 FLD    .                     : Field
 UWI    .                     : Unique Well Identifier (UWI)
 LOC    .                     : Location
 PROV   .                     : Province
 PDAT   .      Mean Sea Level : Permanent Datum
 EPDAT  .      0              : Elevation of Permanent Datum
 LGMEA  .      KB             : Log Measured from
 DRMEA  .      KB             : Drill Measured From
 APDAT  .      10             : Elevation Above Permanent Datum
 RWS    .      -999           : Def_Rw
 WST    .      -999           : Def_Rwt
 SRVC   .      SCH            : Contractor
 GDAT   .      (Undefined)    : Geodatum
 LONG   .      0              : Longitude
 LATI   .      0              : Latitude
 COORDIN.                     : Grid System
 XCOORD .                     : X or East-West Coordinate
 YCOORD .                     : Y or North-South Coordinate

~CURVE INFORMATION
#MNEM              UNIT         API CODE    Curve Type   Comments
#----------  ---------------- ------------  ----------   -----------
 DEPTH      .M                              : Depth       
 DT         .US/F                           : Sonic       Sonic
 GR         .GAPI                           : GammaRay    
 NPHI       .V/V                            : Neutron     Neutron
 RD         .OHMM                           : DeepRes     DeepRes
 RHOB       .G/C3                           : Density     Density

~A  DEPTH     DT        GR       NPHI       RD       RHOB   
# ...
1613.1500  111.5737   87.9128    0.4084    3.6454    2.3629 
1613.2200  111.5172   88.1844    0.4083    3.6513    2.3633 
1613.2900  111.4899   88.6577    0.4079    3.6513    2.3637 
1613.3600  111.3493   89.2479    0.4073    3.6511    2.3639 
1613.4300  111.3275   89.6718    0.4066    3.6511    2.3640 
1613.5000  111.0782   89.9179    0.4059    3.6508    2.3637 
1613.5700  111.0728   89.9604    0.4053    3.6505    2.3631 
1613.6400  110.7670   89.8573    0.4045    3.6543    2.3620 
1613.7100  110.7521   89.8259    0.4031    3.6644    2.3603 
1613.7800  110.4708   89.7204    0.4015    3.6651    2.3583 
1613.8500  110.4577   89.3484    0.3998    3.6853    2.3560 
1613.9200  110.2225   88.9341    0.3981    3.6853    2.3537 
1613.9900  110.1649   88.5508    0.3964    3.6743    2.3515 
1614.0600  110.0580   88.3319    0.3946    3.6743    2.3499 
1614.1300  109.9644   88.3177    0.3928    3.6020    2.3486 
1614.2000  109.9168   88.4858    0.3917    3.5958    2.3476 
1614.2700  109.7818   88.9156    0.3906    3.5415    2.3466 
1614.3400  109.7785   89.4472    0.3891    3.5156    2.3456 
1614.4100  109.6039   89.9194    0.3878    3.5008    2.3448 
1614.4800  109.5550   90.3843    0.3865    3.4815    2.3441 
1614.5500  109.4012   90.9565    0.3855    3.4812    2.3439 
1614.6200  109.3320   91.5546    0.3844    3.4799    2.3443 
1614.6900  109.1498   92.0822    0.3835    3.4799    2.3454 
1614.7600  109.0962   92.6925    0.3831    3.4699    2.3470 
1614.8300  108.8843   93.4165    0.3829    3.4699    2.3487 
1614.9000  108.8265   94.0358    0.3827    3.4453    2.3502 
1614.9700  108.6444   94.6119    0.3825    3.4453    2.3512 
1615.0400  108.5470   95.3135    0.3822    3.4187    2.3518 
1615.1100  108.5882   96.0012    0.3819    3.4135    2.3519 
1615.1800  108.4544   96.6537    0.3812    3.3875    2.3519 
1615.2500  108.6959   97.3506    0.3803    3.3694    2.3520 
1615.3200  108.5644   98.1847    0.3796    3.3521    2.3522 
1615.3900  108.7372   98.9678    0.3789    3.3195    2.3525 
1615.4600  108.7035   99.6898    0.3785    3.3152    2.3530 
1615.5300  108.8204  100.3538    0.3783    3.2774    2.3536 
1615.6000  108.9146  101.0033    0.3781    3.2774    2.3545 
1615.6700  108.9482  101.6215    0.3784    3.2569    2.3554 
1615.7400  109.1025  102.0666    0.3788    3.2569    2.3561 
1615.8100  109.1204  102.4806    0.3790    3.2875    2.3568 
1615.8800  109.2206  103.0867    0.3796    3.2877    2.3577 
1615.9500  109.1453  103.6900    0.3802    3.3202    2.3587 
1616.0200  109.3212  103.9522    0.3809    3.3311    2.3595 
1616.0900  109.1468  103.9071    0.3817    3.3516    2.3600 
1616.1600  109.3146  103.7152    0.3822    3.3719    2.3604 
1616.2300  109.0489  103.3370    0.3827    3.3762    2.3608 
1616.3000  109.1672  102.9174    0.3831    3.3885    2.3614 
1616.3700  109.0443  102.7337    0.3833    3.3885    2.3619 
1616.4400  109.1229  102.8063    0.3833    3.3884    2.3625 
1616.5100  109.1330  102.7656    0.3832    3.3884    2.3635 
1616.5800  109.1199  102.6855    0.3828    3.3950    2.3647 
1616.6500  109.1764  102.5938    0.3819    3.3950    2.3663 
1616.7200  109.1265  102.4083    0.3808    3.4366    2.3681 
1616.7900  109.0880  102.1461    0.3797    3.4409    2.3697 
1616.8600  108.9741  101.7460    0.3785    3.5023    2.3713 
1616.9300  108.9152  101.1652    0.3771    3.5338    2.3728 
1617.0000  108.8322  100.4297    0.3756    3.5772    2.3741 
1617.0700  108.6847   99.6956    0.3743    3.6378    2.3753 
1617.1400  108.5665   98.8811    0.3733    3.6549    2.3765 
1617.2100  108.4510   98.2394    0.3726    3.7361    2.3778 
1617.2800  108.2780   97.6865    0.3719    3.7361    2.3793 
1617.3500  108.1930   96.9380    0.3712    3.8204    2.3813 
1617.4200  107.9949   96.3114    0.3703    3.8204    2.3838 
1617.4900  107.9692   95.6740    0.3691    3.8851    2.3867 
1617.5600  107.6986   94.9171    0.3675    3.8851    2.3900 
1617.6300  107.6673   94.2941    0.3657    3.9192    2.3935 
1617.7000  107.4254   93.7816    0.3637    3.9267    2.3972 
1617.7700  107.3754   93.3645    0.3618    3.9456    2.4011 
1617.8400  107.0858   92.9641    0.3600    3.9596    2.4050 
1617.9100  107.0126   92.5375    0.3583    3.9685    2.4091 
1617.9800  106.7555   92.2459    0.3569    3.9865    2.4132 
1618.0500  106.6309   92.1093    0.3558    3.9889    2.4172 
1618.1200  106.4637   91.9463    0.3545    4.0139    2.4209 
1618.1900  106.2821   91.6093    0.3533    4.0139    2.4247 
1618.2600  106.2074   91.0938    0.3523    4.0508    2.4285 
1618.3300  105.9804   90.4706    0.3518    4.0508    2.4324 
1618.4000  106.0103   89.7503    0.3513    4.0991    2.4360 
1618.4700  105.7431   89.0370    0.3508    4.1003    2.4394 
1618.5400  105.7928   88.4214    0.3504    4.1455    2.4424 
1618.6100  105.5503   87.9294    0.3500    4.1620    2.4449 
1618.6800  105.5888   87.6314    0.3495    4.1730    2.4466 
1618.7500  105.3744   87.3509    0.3490    4.1845    2.4475 
1618.8200  105.2889   87.1662    0.3485    4.1836    2.4477 
1618.8900  105.1509   87.1462    0.3481    4.1807    2.4476 
1618.9600  104.9939   87.2352    0.3475    4.1807    2.4473 
1619.0300  104.9030   87.4038    0.3472    4.1619    2.4469 
1619.1000  104.7627   87.4955    0.3470    4.1619    2.4466 
1619.1700  104.7287   87.6028    0.3471    4.1473    2.4465 
1619.2400  104.5467   87.7759    0.3471    4.1473    2.4465 
1619.3100  104.6019   87.7276    0.3472    4.1392    2.4465 
1619.3800  104.4674   87.6287    0.3477    4.1382    2.4466 
1619.4500  104.6737   87.7764    0.3482    4.1306    2.4469 
1619.5200  104.4523   88.0718    0.3490    4.1264    2.4473 
1619.5900  104.7356   88.2994    0.3497    4.1204    2.4474 
1619.6600  104.5074   88.5608    0.3507    4.1116    2.4474 
1619.7300  104.6223   88.9425    0.3518    4.1082    2.4474 
1619.8000  104.4854   89.2273    0.3533    4.0902    2.4472 
1619.8700  104.4351   89.3241    0.3546    4.0902    2.4468 
1619.9400  104.3905   89.4286    0.3561    4.0715    2.4462 
1620.0100  104.2517   89.5752    0.3580    4.0715    2.4455 
1620.0800  104.2442   89.5390    0.3600    4.0416    2.4451 
1620.1500  104.2550   89.4173    0.3618    4.0416    2.4447 
1620.2200  104.2795   89.3525    0.3631    4.0117    2.4443 
1620.2900  104.3704   89.2948    0.3642    4.0043    2.4437 
1620.3600  104.4567   89.2398    0.3656    3.9858    2.4431 
1620.4300  104.5910   89.3375    0.3668    3.9712    2.4426 
1620.5000  104.7267   89.5454    0.3676    3.9533    2.4419 
1620.5700  104.8451   89.6803    0.3683    3.9144    2.4409 
1620.6400  104.9588   89.8004    0.3691    3.9088    2.4397 
1620.7100  105.0265   89.9243    0.3700    3.8359    2.4382 
1620.7800  105.1806   90.1093    0.3707    3.8359    2.4365 
1620.8500  105.2291   90.2754    0.3713    3.7569    2.4346 
1620.9200  105.3384   90.2087    0.3720    3.7569    2.4326 
1620.9900  105.3231   89.9631    0.3728    3.6927    2.4306 
1621.0600  105.4042   89.7890    0.3735    3.6901    2.4286 
1621.1300  105.3638   89.6207    0.3744    3.6486    2.4269 
1621.2000  105.4490   89.4227    0.3753    3.6322    2.4256 
1621.2700  105.3598   89.2237    0.3765    3.6158    2.4248 
1621.3400  105.4368   89.0388    0.3777    3.5974    2.4243 
1621.4100  105.3284   88.8260    0.3786    3.5935    2.4239 
1621.4800  105.3600   88.5836    0.3792    3.5802    2.4232 
1621.5500  105.2532   88.2639    0.3796    3.5802    2.4225 
1621.6200  105.2694   87.8176    0.3802    3.5658    2.4215 
1621.6900  105.1987   87.4083    0.3807    3.5658    2.4200 
1621.7600  105.1723   87.3123    0.3807    3.5142    2.4182 
1621.8300  105.1767   87.4935    0.3805    3.5142    2.4162 
1621.9000  105.1067   87.7859    0.3801    3.4323    2.4144 
1621.9700  105.1808   88.2624    0.3798    3.4205    2.4128 
1622.0400  105.0954   88.8641    0.3791    3.3597    2.4116 
1622.1100  105.1900   89.5509    0.3782    3.3240    2.4111 
1622.1800  105.0958   90.2197    0.3773    3.2923    2.4114 
1622.2500  105.1433   90.8162    0.3767    3.2417    2.4119 
1622.3200  104.9812   91.3713    0.3762    3.2326    2.4127 
