~VERSION INFORMATION
 VERS.                 2.0:   CWLS LOG ASCII STANDARD - VERSION 2.0
 WRAP.                  NO:   SINGLE LINE PER DEPTH STEP
 CREA.                 09/05/2023 10:30:38
#CREATED USING IP VERSION 4.7.2022.12301 BY USER15 ON 09/05/2023 10:30:38

~WELL INFORMATION
#MNEM.UNIT       DATA                          DESCRIPTION MNEMONIC
#---------      ---------------------------   --------------------------
 STRT    .M         800.0300                  : START DEPTH
 STOP    .M         2100.0000                 : STOP DEPTH
 STEP    .M         0.0700                    : STEP VALUE
 NULL    .      -999.0000                     : NULL VALUE
 DATE    .      09/05/2023                    : LAS file Creation Date
 WELL   .      PPWell         : Well Name
 COMP   .                     : Company
 FLD    .                     : Field
 UWI    .                     : Unique Well Identifier (UWI)
 LOC    .                     : Location
 PROV   .                     : Province
 PDAT   .      Mean Sea Level : Permanent Datum
 EPDAT  .      0              : Elevation of Permanent Datum
 LGMEA  .      KB             : Log Measured from
 DRMEA  .      KB             : Drill Measured From
 APDAT  .      10             : Elevation Above Permanent Datum
 RWS    .      -999           : Def_Rw
 WST    .      -999           : Def_Rwt
 SRVC   .      SCH            : Contractor
 GDAT   .      (Undefined)    : Geodatum
 LONG   .      0              : Longitude
 LATI   .      0              : Latitude
 COORDIN.                     : Grid System
 XCOORD .                     : X or East-West Coordinate
 YCOORD .                     : Y or North-South Coordinate

~CURVE INFORMATION
#MNEM              UNIT         API CODE    Curve Type   Comments
#----------  ---------------- ------------  ----------   -----------
 DEPTH      .M                              : Depth       
 DT         .US/F                           : Sonic       Sonic
 GR         .GAPI                           : GammaRay    
 NPHI       .V/V                            : Neutron     Neutron
 RD         .OHMM                           : DeepRes     DeepRes
 RHOB       .G/C3                           : Density     Density

~A  DEPTH     DT        GR       NPHI       RD       RHOB   
# ...
1539.2300   95.4680   90.6465    0.2701    5.0063    2.3508 
1539.3000   95.4775   90.5758    0.2704    4.9883    2.3528 
1539.3700   95.4768   90.4644    0.2706    4.9860    2.3551 
1539.4400   95.4941   90.2393    0.2708    4.9689    2.3573 
1539.5100   95.4866   90.0017    0.2708    4.9595    2.3593 
1539.5800   95.5122   89.8544    0.2708    4.9482    2.3606 
1539.6500   95.5197   89.7106    0.2707    4.9313    2.3609 
1539.7200   95.5360   89.5137    0.2707    4.9280    2.3602 
1539.7900   95.5590   89.2599    0.2706    4.9102    2.3582 
1539.8600   95.5888   88.9728    0.2705    4.9102    2.3555 
1539.9300   95.5895   88.6060    0.2704    4.8916    2.3520 
1540.0000   95.5899   88.2155    0.2702    4.8916    2.3481 
1540.0700   95.5900   87.7270    0.2700    4.8669    2.3437 
1540.1400   95.5774   87.1502    0.2696    4.8669    2.3389 
1540.2100   95.5708   86.5088    0.2692    4.8429    2.3339 
1540.2800   95.5503   85.8330    0.2688    4.8370    2.3287 
1540.3500   95.5475   85.2573    0.2684    4.8202    2.3233 
1540.4200   95.5168   84.6331    0.2682    4.8069    2.3179 
1540.4900   95.5255   83.8393    0.2682    4.7980    2.3126 
1540.5600   95.4727   82.9781    0.2682    4.7787    2.3076 
1540.6300   95.4735   82.1390    0.2683    4.7769    2.3028 
1540.7000   95.4452   81.2889    0.2684    4.7537    2.2983 
1540.7700   95.4229   80.3669    0.2685    4.7537    2.2942 
1540.8400   95.4139   79.6245    0.2687    4.7331    2.2906 
1540.9100   95.3847   79.0058    0.2687    4.7331    2.2874 
1540.9800   95.3959   78.2573    0.2689    4.7158    2.2844 
1541.0500   95.3600   77.5090    0.2691    4.7151    2.2817 
1541.1200   95.3370   76.8281    0.2694    4.7044    2.2791 
1541.1900   95.3768   76.2541    0.2698    4.7002    2.2763 
1541.2600   95.3395   75.9102    0.2702    4.6939    2.2732 
1541.3300   95.3714   75.7898    0.2706    4.6868    2.2697 
1541.4000   95.3387   75.6127    0.2707    4.6842    2.2660 
1541.4700   95.3839   75.3197    0.2707    4.6753    2.2622 
1541.5400   95.3565   75.0256    0.2706    4.6753    2.2583 
1541.6100   95.3857   74.7351    0.2704    4.6610    2.2543 
1541.6800   95.4425   74.4503    0.2700    4.6610    2.2502 
1541.7500   95.4494   74.0439    0.2698    4.6469    2.2464 
1541.8200   95.4950   73.6587    0.2697    4.6469    2.2428 
1541.8900   95.4998   73.3262    0.2698    4.6373    2.2393 
1541.9600   95.5738   72.9837    0.2701    4.6359    2.2358 
1542.0300   95.5816   72.7463    0.2705    4.6333    2.2324 
1542.1000   95.5915   72.3932    0.2711    4.6318    2.2291 
1542.1700   95.5956   71.7350    0.2718    4.6299    2.2258 
1542.2400   95.5922   71.1829    0.2726    4.6270    2.2224 
1542.3100   95.5849   70.8776    0.2734    4.6254    2.2191 
1542.3800   95.5777   70.6541    0.2742    4.6159    2.2160 
1542.4500   95.5526   70.3508    0.2750    4.6159    2.2135 
1542.5200   95.5465   70.0695    0.2756    4.6059    2.2117 
1542.5900   95.5278   69.6069    0.2761    4.6059    2.2108 
1542.6600   95.5246   68.8980    0.2765    4.5944    2.2105 
1542.7300   95.5550   68.0809    0.2768    4.5944    2.2109 
1542.8000   95.5495   67.2885    0.2772    4.5908    2.2116 
1542.8700   95.6134   66.4245    0.2775    4.5898    2.2127 
1542.9400   95.6005   65.4645    0.2778    4.5788    2.2136 
1543.0100   95.6717   64.4987    0.2780    4.5695    2.2143 
1543.0800   95.6741   63.8068    0.2780    4.5563    2.2146 
1543.1500   95.6991   63.2155    0.2779    4.5252    2.2144 
1543.2200   95.7100   62.5919    0.2776    4.5225    2.2136 
1543.2900   95.7066   62.1300    0.2772    4.4750    2.2120 
1543.3600   95.7064   61.8146    0.2768    4.4750    2.2097 
1543.4300   95.6948   61.5306    0.2763    4.4438    2.2070 
1543.5000   95.6435   61.2845    0.2759    4.4438    2.2042 
1543.5700   95.6459   60.9592    0.2754    4.4212    2.2014 
1543.6400   95.5823   60.5219    0.2749    4.4199    2.1992 
1543.7100   95.5917   60.1273    0.2745    4.3998    2.1976 
1543.7800   95.4853   59.7163    0.2742    4.3912    2.1967 
1543.8500   95.5120   59.3695    0.2742    4.3759    2.1964 
1543.9200   95.4404   59.1421    0.2742    4.3577    2.1966 
1543.9900   95.4506   58.8669    0.2743    4.3517    2.1969 
1544.0600   95.4669   58.4172    0.2746    4.3296    2.1973 
1544.1300   95.5064   57.8700    0.2748    4.3296    2.1977 
1544.2000   95.5085   57.3741    0.2748    4.3185    2.1980 
1544.2700   95.5300   57.1214    0.2746    4.3185    2.1982 
1544.3400   95.5353   56.9774    0.2744    4.3200    2.1985 
1544.4100   95.5348   56.8597    0.2742    4.3200    2.1988 
1544.4800   95.5543   56.8108    0.2742    4.3266    2.1992 
1544.5500   95.6217   56.8003    0.2742    4.3277    2.1995 
1544.6200   95.6501   56.7370    0.2743    4.3331    2.1997 
1544.6900   95.6671   56.6659    0.2744    4.3365    2.2000 
1544.7600   95.6949   56.6211    0.2746    4.3391    2.2002 
1544.8300   95.6772   56.6011    0.2749    4.3437    2.2003 
1544.9000   95.6948   56.5963    0.2751    4.3444    2.2003 
1544.9700   95.7242   56.6093    0.2750    4.3493    2.2003 
1545.0400   95.7676   56.6028    0.2749    4.3493    2.2002 
1545.1100   95.7755   56.7110    0.2749    4.3507    2.2000 
1545.1800   95.8126   56.9248    0.2749    4.3507    2.1997 
1545.2500   95.8249   57.1362    0.2747    4.3475    2.1993 
1545.3200   95.9025   57.5296    0.2746    4.3475    2.1988 
1545.3900   95.9391   57.8540    0.2745    4.3418    2.1984 
1545.4600   95.9431   57.9174    0.2745    4.3401    2.1982 
1545.5300   95.9993   57.9710    0.2747    4.3345    2.1979 
1545.6000   95.9921   58.1589    0.2749    4.3294    2.1978 
1545.6700   96.0506   58.3493    0.2752    4.3256    2.1977 
1545.7400   96.0554   58.3520    0.2755    4.3158    2.1975 
1545.8100   96.0900   58.3002    0.2757    4.3151    2.1970 
1545.8800   96.0858   58.1960    0.2759    4.2989    2.1963 
1545.9500   96.1449   58.1419    0.2761    4.2989    2.1954 
1546.0200   96.1611   58.2231    0.2762    4.2791    2.1943 
1546.0900   96.1903   58.2362    0.2765    4.2791    2.1931 
1546.1600   96.2161   58.1868    0.2769    4.2585    2.1919 
1546.2300   96.2449   58.1060    0.2774    4.2569    2.1907 
1546.3000   96.3163   57.9107    0.2779    4.2410    2.1894 
1546.3700   96.3211   57.5982    0.2784    4.2337    2.1880 
1546.4400   96.4706   57.4167    0.2788    4.2237    2.1864 
1546.5100   96.4666   57.3328    0.2792    4.2110    2.1845 
1546.5800   96.6640   57.2392    0.2795    4.2078    2.1823 
1546.6500   96.6703   57.1817    0.2798    4.1948    2.1795 
1546.7200   96.8319   57.0305    0.2801    4.1948    2.1763 
1546.7900   96.8453   56.9041    0.2804    4.1777    2.1725 
1546.8600   96.9772   56.7052    0.2808    4.1777    2.1683 
1546.9300   97.0293   56.3528    0.2813    4.1583    2.1639 
1547.0000   97.1311   56.0131    0.2818    4.1583    2.1595 
1547.0700   97.2163   55.6460    0.2824    4.1454    2.1555 
1547.1400   97.2708   55.2674    0.2831    4.1430    2.1522 
1547.2100   97.2942   55.1000    0.2841    4.1340    2.1495 
1547.2800   97.3355   54.9132    0.2852    4.1280    2.1474 
1547.3500   97.3698   54.6336    0.2865    4.1189    2.1461 
1547.4200   97.3919   54.6131    0.2878    4.1024    2.1452 
1547.4900   97.4289   54.8571    0.2892    4.0992    2.1445 
1547.5600   97.4383   55.1394    0.2903    4.0740    2.1439 
1547.6300   97.4150   55.5359    0.2915    4.0740    2.1434 
1547.7000   97.4170   56.2467    0.2927    4.0494    2.1432 
1547.7700   97.4333   57.0255    0.2937    4.0494    2.1433 
1547.8400   97.4298   57.7757    0.2946    4.0282    2.1438 
1547.9100   97.4609   58.6443    0.2954    4.0282    2.1448 
1547.9800   97.4821   59.6559    0.2962    4.0167    2.1464 
1548.0500   97.5793   60.7201    0.2969    4.0130    2.1483 
1548.1200   97.6749   61.5715    0.2976    4.0108    2.1505 
1548.1900   97.7577   62.1858    0.2980    4.0087    2.1528 
1548.2600   97.9133   62.6422    0.2985    4.0096    2.1551 
1548.3300   97.9750   63.0028    0.2989    4.0119    2.1574 
1548.4000   98.1638   63.4335    0.2993    4.0119    2.1598 
