~VERSION INFORMATION
 VERS.                 2.0:   CWLS LOG ASCII STANDARD - VERSION 2.0
 WRAP.                  NO:   SINGLE LINE PER DEPTH STEP
 CREA.                 09/05/2023 10:30:38
#CREATED USING IP VERSION 4.7.2022.12301 BY USER15 ON 09/05/2023 10:30:38

~WELL INFORMATION
#MNEM.UNIT       DATA                          DESCRIPTION MNEMONIC
#---------      ---------------------------   --------------------------
 STRT    .M         800.0300                  : START DEPTH
 STOP    .M         2100.0000                 : STOP DEPTH
 STEP    .M         0.0700                    : STEP VALUE
 NULL    .      -999.0000                     : NULL VALUE
 DATE    .      09/05/2023                    : LAS file Creation Date
 WELL   .      PPWell         : Well Name
 COMP   .                     : Company
 FLD    .                     : Field
 UWI    .                     : Unique Well Identifier (UWI)
 LOC    .                     : Location
 PROV   .                     : Province
 PDAT   .      Mean Sea Level : Permanent Datum
 EPDAT  .      0              : Elevation of Permanent Datum
 LGMEA  .      KB             : Log Measured from
 DRMEA  .      KB             : Drill Measured From
 APDAT  .      10             : Elevation Above Permanent Datum
 RWS    .      -999           : Def_Rw
 WST    .      -999           : Def_Rwt
 SRVC   .      SCH            : Contractor
 GDAT   .      (Undefined)    : Geodatum
 LONG   .      0              : Longitude
 LATI   .      0              : Latitude
 COORDIN.                     : Grid System
 XCOORD .                     : X or East-West Coordinate
 YCOORD .                     : Y or North-South Coordinate

~CURVE INFORMATION
#MNEM              UNIT         API CODE    Curve Type   Comments
#----------  ---------------- ------------  ----------   -----------
 DEPTH      .M                              : Depth       
 DT         .US/F                           : Sonic       Sonic
 GR         .GAPI                           : GammaRay    
 NPHI       .V/V                            : Neutron     Neutron
 RD         .OHMM                           : DeepRes     DeepRes
 RHOB       .G/C3                           : Density     Density

~A  DEPTH     DT        GR       NPHI       RD       RHOB   
# ...
1104.9500  106.8879  123.7799    0.3265    4.6242    2.4141 
1105.0200  106.8864  123.5131    0.3262    4.6246    2.4139 
1105.0900  106.8802  123.4266    0.3257    4.6270    2.4137 
1105.1600  106.8650  123.4468    0.3252    4.6300    2.4136 
1105.2300  106.8474  123.5181    0.3248    4.6319    2.4133 
1105.3000  106.8442  123.6163    0.3245    4.6395    2.4130 
1105.3700  106.8418  123.7594    0.3244    4.6395    2.4128 
1105.4400  106.8425  123.7550    0.3245    4.6515    2.4127 
1105.5100  106.8312  123.5929    0.3247    4.6515    2.4127 
1105.5800  106.8272  123.5171    0.3250    4.6619    2.4127 
1105.6500  106.8543  123.5308    0.3253    4.6619    2.4128 
1105.7200  106.8731  123.6303    0.3255    4.6701    2.4129 
1105.7900  106.8876  123.7371    0.3255    4.6715    2.4129 
1105.8600  106.9117  123.6907    0.3254    4.6766    2.4127 
1105.9300  106.9197  123.6281    0.3253    4.6799    2.4123 
1106.0000  106.9475  123.6475    0.3250    4.6818    2.4118 
1106.0700  106.9617  123.7383    0.3249    4.6850    2.4113 
1106.1400  106.9969  123.7942    0.3249    4.6855    2.4109 
1106.2100  106.9957  123.6916    0.3250    4.6899    2.4104 
1106.2800  106.9858  123.6213    0.3252    4.6899    2.4099 
1106.3500  106.9873  123.7558    0.3255    4.6980    2.4094 
1106.4200  106.9805  123.9384    0.3260    4.6980    2.4090 
1106.4900  106.9719  124.0617    0.3264    4.7051    2.4086 
1106.5600  106.9833  123.8883    0.3267    4.7051    2.4082 
1106.6300  106.9715  123.6529    0.3271    4.7096    2.4078 
1106.7000  106.9157  123.5276    0.3276    4.7110    2.4076 
1106.7700  106.9221  123.4338    0.3279    4.7158    2.4075 
1106.8400  106.9010  123.0040    0.3282    4.7201    2.4074 
1106.9100  106.9106  122.5215    0.3281    4.7231    2.4073 
1106.9800  106.9191  122.2685    0.3281    4.7309    2.4070 
1107.0500  106.9666  122.3619    0.3278    4.7313    2.4067 
1107.1200  106.9691  122.5769    0.3276    4.7416    2.4062 
1107.1900  106.9919  122.6998    0.3275    4.7416    2.4058 
1107.2600  107.0025  122.6394    0.3276    4.7538    2.4053 
1107.3300  107.0571  122.4629    0.3279    4.7538    2.4048 
1107.4000  107.0797  122.3693    0.3282    4.7662    2.4043 
1107.4700  107.1114  122.3281    0.3286    4.7673    2.4040 
1107.5400  107.1339  122.1968    0.3288    4.7740    2.4037 
1107.6100  107.1227  122.0866    0.3286    4.7773    2.4035 
1107.6800  107.1317  122.0526    0.3285    4.7839    2.4032 
1107.7500  107.1258  121.8511    0.3285    4.7927    2.4028 
1107.8200  107.1612  121.6113    0.3284    4.7955    2.4023 
1107.8900  107.1406  121.4539    0.3281    4.8074    2.4017 
1107.9600  107.1401  121.3286    0.3280    4.8074    2.4011 
1108.0300  107.1423  121.1318    0.3282    4.8148    2.4005 
1108.1000  107.1595  121.0033    0.3283    4.8148    2.4000 
1108.1700  107.1633  120.9034    0.3282    4.8141    2.3995 
1108.2400  107.1503  120.8622    0.3278    4.8141    2.3992 
1108.3100  107.1658  120.9498    0.3277    4.8128    2.3992 
1108.3800  107.1747  121.2008    0.3276    4.8126    2.3993 
1108.4500  107.2195  121.3962    0.3276    4.8127    2.3996 
1108.5200  107.2688  121.5709    0.3273    4.8128    2.3999 
1108.5900  107.2640  121.8574    0.3272    4.8132    2.4004 
1108.6600  107.2530  122.2140    0.3270    4.8138    2.4008 
1108.7300  107.2795  122.4335    0.3268    4.8136    2.4011 
1108.8000  107.2935  122.4005    0.3267    4.8121    2.4012 
1108.8700  107.3048  122.2516    0.3266    4.8121    2.4012 
1108.9400  107.2964  121.9306    0.3263    4.8107    2.4011 
1109.0100  107.2779  121.6740    0.3262    4.8107    2.4011 
1109.0800  107.2820  121.5738    0.3263    4.8125    2.4011 
1109.1500  107.2543  121.5370    0.3264    4.8125    2.4014 
1109.2200  107.2538  121.4238    0.3263    4.8154    2.4018 
1109.2900  107.2854  121.2361    0.3263    4.8163    2.4023 
1109.3600  107.2828  121.2856    0.3262    4.8150    2.4029 
1109.4300  107.2785  121.5115    0.3261    4.8137    2.4034 
1109.5000  107.3325  121.6589    0.3259    4.8120    2.4037 
1109.5700  107.3483  121.8696    0.3256    4.8072    2.4037 
1109.6400  107.4039  122.1790    0.3251    4.8070    2.4034 
1109.7100  107.4151  122.2843    0.3246    4.7999    2.4028 
1109.7800  107.4478  122.2320    0.3242    4.7999    2.4021 
1109.8500  107.4565  122.0792    0.3238    4.7882    2.4014 
1109.9200  107.4997  121.8086    0.3235    4.7882    2.4009 
1109.9900  107.5176  121.6849    0.3233    4.7759    2.4006 
1110.0600  107.5106  121.9157    0.3232    4.7747    2.4006 
1110.1300  107.5249  122.1556    0.3234    4.7655    2.4007 
1110.2000  107.4998  122.0989    0.3237    4.7609    2.4010 
1110.2700  107.5407  121.9149    0.3240    4.7544    2.4015 
1110.3400  107.5423  121.7035    0.3245    4.7455    2.4021 
1110.4100  107.5433  121.5174    0.3252    4.7427    2.4026 
1110.4800  107.5414  121.5183    0.3258    4.7295    2.4032 
1110.5500  107.5305  121.5481    0.3262    4.7295    2.4037 
1110.6200  107.5317  121.4209    0.3264    4.7163    2.4041 
1110.6900  107.5390  121.2586    0.3266    4.7163    2.4044 
1110.7600  107.5440  121.0208    0.3267    4.7105    2.4046 
1110.8300  107.5939  120.8000    0.3267    4.7105    2.4048 
1110.9000  107.5904  120.6992    0.3265    4.7104    2.4049 
1110.9700  107.6224  120.6471    0.3266    4.7104    2.4051 
1111.0400  107.6488  120.4125    0.3268    4.7143    2.4054 
1111.1100  107.6892  120.1505    0.3267    4.7171    2.4057 
1111.1800  107.7751  120.0298    0.3268    4.7194    2.4060 
1111.2500  107.8121  119.9209    0.3270    4.7240    2.4061 
1111.3200  107.7981  119.8965    0.3270    4.7241    2.4060 
1111.3900  107.8196  120.0300    0.3272    4.7253    2.4058 
1111.4600  107.8745  120.0982    0.3275    4.7253    2.4053 
1111.5300  107.8904  120.2620    0.3280    4.7218    2.4046 
1111.6000  107.9386  120.5631    0.3285    4.7218    2.4039 
1111.6700  107.9465  120.7612    0.3290    4.7172    2.4032 
1111.7400  107.9904  120.8375    0.3294    4.7171    2.4027 
1111.8100  107.9881  120.9846    0.3298    4.7134    2.4024 
1111.8800  108.0026  121.1699    0.3301    4.7121    2.4021 
1111.9500  107.9724  121.3310    0.3303    4.7084    2.4020 
1112.0200  107.9991  121.4251    0.3305    4.7045    2.4019 
1112.0900  107.9624  121.3325    0.3309    4.7018    2.4018 
1112.1600  107.9867  121.1505    0.3311    4.6934    2.4017 
1112.2300  108.0187  121.0029    0.3314    4.6934    2.4015 
1112.3000  108.0286  120.9274    0.3315    4.6814    2.4013 
1112.3700  108.0373  120.8262    0.3314    4.6814    2.4009 
1112.4400  108.0408  120.6028    0.3313    4.6748    2.4001 
1112.5100  108.0971  120.3822    0.3312    4.6748    2.3991 
1112.5800  108.1137  120.3117    0.3314    4.6709    2.3979 
1112.6500  108.1033  120.4201    0.3317    4.6704    2.3965 
1112.7200  108.0968  120.5567    0.3319    4.6703    2.3948 
1112.7900  108.0907  120.7803    0.3321    4.6703    2.3931 
1112.8600  108.0462  120.9797    0.3323    4.6733    2.3917 
1112.9300  108.0437  121.0008    0.3326    4.6777    2.3906 
1113.0000  107.9989  121.0367    0.3328    4.6792    2.3896 
1113.0700  107.9946  121.2226    0.3332    4.6874    2.3886 
1113.1400  107.8978  121.4022    0.3337    4.6874    2.3876 
1113.2100  107.8976  121.4102    0.3339    4.6985    2.3865 
1113.2800  107.8084  121.2136    0.3340    4.6985    2.3853 
1113.3500  107.7557  120.9675    0.3339    4.7085    2.3838 
1113.4200  107.7448  120.6160    0.3339    4.7085    2.3822 
1113.4900  107.6771  120.3962    0.3336    4.7171    2.3806 
1113.5600  107.6881  120.4597    0.3332    4.7191    2.3793 
1113.6300  107.5803  120.6314    0.3330    4.7240    2.3782 
1113.7000  107.5871  120.6033    0.3330    4.7278    2.3773 
1113.7700  107.5317  120.4262    0.3328    4.7312    2.3765 
1113.8400  107.5330  120.2801    0.3326    4.7387    2.3759 
1113.9100  107.5619  120.3002    0.3325    4.7394    2.3752 
1113.9800  107.5485  120.6231    0.3325    4.7488    2.3744 
1114.0500  107.5462  120.9151    0.3324    4.7488    2.3734 
1114.1200  107.5467  121.0773    0.3320    4.7607    2.3723 
