~VERSION INFORMATION
 VERS.                 2.0:   CWLS LOG ASCII STANDARD - VERSION 2.0
 WRAP.                  NO:   SINGLE LINE PER DEPTH STEP
 CREA.                 09/05/2023 10:30:38
#CREATED USING IP VERSION 4.7.2022.12301 BY USER15 ON 09/05/2023 10:30:38

~WELL INFORMATION
#MNEM.UNIT       DATA                          DESCRIPTION MNEMONIC
#---------      ---------------------------   --------------------------
 STRT    .M         800.0300                  : START DEPTH
 STOP    .M         2100.0000                 : STOP DEPTH
 STEP    .M         0.0700                    : STEP VALUE
 NULL    .      -999.0000                     : NULL VALUE
 DATE    .      09/05/2023                    : LAS file Creation Date
 WELL   .      PPWell         : Well Name
 COMP   .                     : Company
 FLD    .                     : Field
 UWI    .                     : Unique Well Identifier (UWI)
 LOC    .                     : Location
 PROV   .                     : Province
 PDAT   .      Mean Sea Level : Permanent Datum
 EPDAT  .      0              : Elevation of Permanent Datum
 LGMEA  .      KB             : Log Measured from
 DRMEA  .      KB             : Drill Measured From
 APDAT  .      10             : Elevation Above Permanent Datum
 RWS    .      -999           : Def_Rw
 WST    .      -999           : Def_Rwt
 SRVC   .      SCH            : Contractor
 GDAT   .      (Undefined)    : Geodatum
 LONG   .      0              : Longitude
 LATI   .      0              : Latitude
 COORDIN.                     : Grid System
 XCOORD .                     : X or East-West Coordinate
 YCOORD .                     : Y or North-South Coordinate

~CURVE INFORMATION
#MNEM              UNIT         API CODE    Curve Type   Comments
#----------  ---------------- ------------  ----------   -----------
 DEPTH      .M                              : Depth       
 DT         .US/F                           : Sonic       Sonic
 GR         .GAPI                           : GammaRay    
 NPHI       .V/V                            : Neutron     Neutron
 RD         .OHMM                           : DeepRes     DeepRes
 RHOB       .G/C3                           : Density     Density

~A  DEPTH     DT        GR       NPHI       RD       RHOB   
# ...
1825.6700   77.4335   39.0209    0.1345   14.8338    2.3634 
1825.7400   77.0705   39.8024    0.1358   14.8338    2.3571 
1825.8100   77.0836   40.5041    0.1371   14.6175    2.3506 
1825.8800   76.7259   41.3222    0.1382   14.5794    2.3445 
1825.9500   76.7913   42.1796    0.1393   14.4434    2.3394 
1826.0200   76.2075   42.8758    0.1405   14.3550    2.3353 
1826.0900   76.2493   43.4129    0.1419   14.1929    2.3317 
1826.1600   76.3542   44.0641    0.1435   13.9074    2.3283 
1826.2300   76.6592   44.8220    0.1450   13.8352    2.3250 
1826.3000   76.7770   45.4710    0.1464   13.2962    2.3218 
1826.3700   77.0666   45.9377    0.1478   13.2962    2.3180 
1826.4400   77.2093   46.3203    0.1491   12.5864    2.3132 
1826.5100   77.7887   46.8711    0.1505   12.5864    2.3071 
1826.5800   77.9259   47.6020    0.1520   11.7057    2.2997 
1826.6500   78.3973   48.3372    0.1539   11.7057    2.2909 
1826.7200   78.5364   49.1400    0.1561   11.0914    2.2813 
1826.7900   78.7015   49.9238    0.1585   10.9014    2.2711 
1826.8600   77.3119   50.5121    0.1613   10.5633    2.2606 
1826.9300   77.4200   51.0930    0.1642   10.2507    2.2502 
1827.0000   76.0179   51.7341    0.1671   10.1122    2.2408 
1827.0700   76.0503   52.3725    0.1698    9.7479    2.2326 
1827.1400   75.0224   53.0691    0.1722    9.7340    2.2256 
1827.2100   75.0330   53.7754    0.1745    9.3072    2.2195 
1827.2800   74.3420   54.4921    0.1765    9.3072    2.2139 
1827.3500   74.1611   55.1153    0.1779    8.8970    2.2085 
1827.4200   73.6032   55.6451    0.1790    8.8970    2.2035 
1827.4900   73.0929   56.1480    0.1803    8.5301    2.1988 
1827.5600   72.9939   56.5246    0.1820    8.4988    2.1944 
1827.6300   72.5022   56.8549    0.1841    8.2643    2.1904 
1827.7000   72.6490   57.2559    0.1864    8.1525    2.1868 
1827.7700   72.0837   57.8182    0.1890    8.0387    2.1832 
1827.8400   72.2408   58.4063    0.1917    7.8897    2.1792 
1827.9100   71.6573   58.8973    0.1944    7.8263    2.1746 
1827.9800   71.7393   59.2913    0.1972    7.5542    2.1693 
1828.0500   71.1088   59.7984    0.2002    7.5542    2.1633 
1828.1200   71.0458   60.3685    0.2034    7.0886    2.1566 
1828.1900   70.2238   60.9544    0.2066    7.0886    2.1500 
1828.2600   69.8646   61.3995    0.2095    6.5541    2.1442 
1828.3300   69.1359   61.8470    0.2123    6.5541    2.1396 
1828.4000   68.6656   62.4069    0.2147    6.1024    2.1363 
1828.4700   67.9407   62.9501    0.2170    6.0130    2.1343 
1828.5400   67.1723   63.3750    0.2190    5.8164    2.1333 
1828.6100   66.6260   63.7514    0.2205    5.6802    2.1326 
1828.6800   65.7124   64.2844    0.2215    5.6209    2.1316 
1828.7500   65.1667   64.9183    0.2223    5.5090    2.1302 
1828.8200   64.0809   65.4373    0.2230    5.5023    2.1287 
1828.8900   63.7494   65.8455    0.2236    5.4435    2.1278 
1828.9600   62.9281   66.2646    0.2242    5.4435    2.1278 
1829.0300   62.7370   66.6305    0.2250    5.3674    2.1292 
1829.1000   62.1349   66.9367    0.2260    5.3674    2.1318 
1829.1700   61.9897   67.1447    0.2273    5.2629    2.1354 
1829.2400   61.7531   67.2081    0.2290    5.2621    2.1397 
1829.3100   61.9535   67.2433    0.2309    5.1940    2.1440 
1829.3800   61.9361   67.2190    0.2328    5.1711    2.1477 
1829.4500   62.3819   67.0731    0.2347    5.1386    2.1504 
1829.5200   62.3222   66.9636    0.2366    5.1067    2.1527 
1829.5900   62.9350   66.8369    0.2384    5.1018    2.1548 
1829.6600   62.8239   66.6391    0.2397    5.0878    2.1571 
1829.7300   63.3779   66.3595    0.2406    5.0889    2.1597 
1829.8000   63.2512   65.9828    0.2413    5.1585    2.1636 
1829.8700   63.4556   65.7005    0.2418    5.1585    2.1687 
1829.9400   63.4958   65.6244    0.2420    5.1932    2.1743 
1830.0100   63.1499   65.5478    0.2420    5.1932    2.1792 
1830.0800   63.2371   65.3144    0.2419    5.1746    2.1833 
1830.1500   62.6315   65.2158    0.2416    5.1727    2.1863 
1830.2200   62.6692   65.1845    0.2411    5.1580    2.1881 
1830.2900   62.0258   65.1288    0.2404    5.1505    2.1887 
1830.3600   62.1128   64.9061    0.2395    5.1408    2.1885 
1830.4300   61.7815   64.3789    0.2385    5.1274    2.1883 
1830.5000   61.7065   63.5992    0.2373    5.1312    2.1892 
1830.5700   61.5274   62.8074    0.2360    5.1496    2.1917 
1830.6400   61.4250   62.0765    0.2348    5.1496    2.1959 
1830.7100   61.3504   61.3324    0.2336    5.1949    2.2015 
1830.7800   61.3939   60.5995    0.2324    5.1949    2.2082 
1830.8500   61.4850   59.9584    0.2314    5.2102    2.2160 
1830.9200   61.4648   59.3098    0.2306    5.2102    2.2252 
1830.9900   61.6232   58.6316    0.2298    5.2077    2.2350 
1831.0600   61.4865   58.0164    0.2290    5.2072    2.2450 
1831.1300   61.8233   57.5596    0.2282    5.1901    2.2552 
1831.2000   61.7751   57.2106    0.2272    5.1775    2.2654 
1831.2700   62.2589   56.8493    0.2260    5.1792    2.2757 
1831.3400   62.0382   56.4608    0.2250    5.1827    2.2859 
1831.4100   62.2555   56.2032    0.2243    5.1813    2.2961 
1831.4800   62.0386   55.9708    0.2237    5.1664    2.3060 
1831.5500   62.1557   55.6824    0.2232    5.1664    2.3154 
1831.6200   62.1034   55.5162    0.2230    5.1604    2.3239 
1831.6900   62.0561   55.5786    0.2232    5.1604    2.3315 
1831.7600   62.3110   55.6695    0.2235    5.2138    2.3383 
1831.8300   62.0551   55.8234    0.2240    5.2151    2.3443 
1831.9000   62.7092   56.0882    0.2249    5.2439    2.3495 
1831.9700   62.4998   56.4444    0.2261    5.2544    2.3541 
1832.0400   63.3553   57.0388    0.2274    5.2383    2.3586 
1832.1100   62.9849   57.7239    0.2289    5.2214    2.3634 
1832.1800   63.5294   58.0996    0.2308    5.2390    2.3686 
1832.2500   63.4470   58.2201    0.2329    5.2934    2.3735 
1832.3200   63.8143   58.1748    0.2347    5.2934    2.3778 
1832.3900   63.6954   58.1354    0.2363    5.4361    2.3817 
1832.4600   63.8423   58.2350    0.2379    5.4361    2.3852 
1832.5300   63.9185   58.5800    0.2388    5.4640    2.3882 
1832.6000   64.0482   59.1809    0.2390    5.4640    2.3909 
1832.6700   64.3843   59.9373    0.2387    5.4000    2.3937 
1832.7400   64.1838   60.6334    0.2379    5.3920    2.3971 
1832.8100   64.4753   61.1277    0.2371    5.3227    2.4008 
1832.8800   64.1274   61.6455    0.2360    5.2846    2.4045 
1832.9500   64.5670   62.3126    0.2348    5.2852    2.4078 
1833.0200   64.3248   62.8794    0.2339    5.2861    2.4104 
1833.0900   64.6632   63.2602    0.2334    5.3135    2.4120 
1833.1600   64.3769   63.6310    0.2333    5.4606    2.4126 
1833.2300   64.2315   63.8648    0.2334    5.4606    2.4124 
1833.3000   64.1014   63.9886    0.2336    5.7131    2.4119 
1833.3700   63.5696   64.1482    0.2341    5.7131    2.4114 
1833.4400   63.4426   64.3408    0.2348    5.9845    2.4110 
1833.5100   62.4363   64.4789    0.2357    5.9845    2.4102 
1833.5800   61.9564   64.6009    0.2363    6.0967    2.4090 
1833.6500   61.2311   64.7449    0.2368    6.1242    2.4073 
1833.7200   60.6419   64.7875    0.2376    6.1073    2.4051 
1833.7900   61.8119   64.8575    0.2385    6.0940    2.4018 
1833.8600   60.9552   65.1846    0.2393    6.0392    2.3968 
1833.9300   61.7033   65.5542    0.2403    5.9200    2.3907 
1834.0000   60.8979   65.8275    0.2413    5.9073    2.3842 
1834.0700   61.2261   66.1104    0.2420    5.7409    2.3775 
1834.1400   61.5712   66.4560    0.2422    5.7409    2.3707 
1834.2100   61.6854   66.9223    0.2421    5.6179    2.3643 
1834.2800   62.1720   67.4483    0.2416    5.6179    2.3588 
1834.3500   62.1690   68.0418    0.2408    5.5354    2.3544 
1834.4200   63.0641   68.6028    0.2395    5.5320    2.3509 
1834.4900   63.1043   69.2078    0.2381    5.4946    2.3481 
1834.5600   63.5845   69.7527    0.2364    5.4797    2.3456 
1834.6300   63.4638   70.0992    0.2350    5.4838    2.3434 
1834.7000   63.8096   70.3438    0.2338    5.4883    2.3414 
1834.7700   64.1659   70.5536    0.2330    5.5041    2.3393 
1834.8400   64.4410   70.7852    0.2323    5.5572    2.3366 
