~VERSION INFORMATION
 VERS.                 2.0:   CWLS LOG ASCII STANDARD - VERSION 2.0
 WRAP.                  NO:   SINGLE LINE PER DEPTH STEP
 CREA.                 09/05/2023 10:30:38
#CREATED USING IP VERSION 4.7.2022.12301 BY USER15 ON 09/05/2023 10:30:38

~WELL INFORMATION
#MNEM.UNIT       DATA                          DESCRIPTION MNEMONIC
#---------      ---------------------------   --------------------------
 STRT    .M         800.0300                  : START DEPTH
 STOP    .M         2100.0000                 : STOP DEPTH
 STEP    .M         0.0700                    : STEP VALUE
 NULL    .      -999.0000                     : NULL VALUE
 DATE    .      09/05/2023                    : LAS file Creation Date
 WELL   .      PPWell         : Well Name
 COMP   .                     : Company
 FLD    .                     : Field
 UWI    .                     : Unique Well Identifier (UWI)
 LOC    .                     : Location
 PROV   .                     : Province
 PDAT   .      Mean Sea Level : Permanent Datum
 EPDAT  .      0              : Elevation of Permanent Datum
 LGMEA  .      KB             : Log Measured from
 DRMEA  .      KB             : Drill Measured From
 APDAT  .      10             : Elevation Above Permanent Datum
 RWS    .      -999           : Def_Rw
 WST    .      -999           : Def_Rwt
 SRVC   .      SCH            : Contractor
 GDAT   .      (Undefined)    : Geodatum
 LONG   .      0              : Longitude
 LATI   .      0              : Latitude
 COORDIN.                     : Grid System
 XCOORD .                     : X or East-West Coordinate
 YCOORD .                     : Y or North-South Coordinate

~CURVE INFORMATION
#MNEM              UNIT         API CODE    Curve Type   Comments
#----------  ---------------- ------------  ----------   -----------
 DEPTH      .M                              : Depth       
 DT         .US/F                           : Sonic       Sonic
 GR         .GAPI                           : GammaRay    
 NPHI       .V/V                            : Neutron     Neutron
 RD         .OHMM                           : DeepRes     DeepRes
 RHOB       .G/C3                           : Density     Density

~A  DEPTH     DT        GR       NPHI       RD       RHOB   
# ...
1178.8700   95.9112   93.0677    0.2852   10.5832    2.2922 
1178.9400   95.8579   92.9862    0.2849   10.5879    2.2917 
1179.0100   95.9209   92.8949    0.2849   10.6068    2.2906 
1179.0800   95.8694   92.8666    0.2849   10.6213    2.2887 
1179.1500   95.9882   92.9212    0.2851   10.6376    2.2857 
1179.2200   95.9625   93.1674    0.2852   10.6717    2.2817 
1179.2900   96.0733   93.3866    0.2853   10.6784    2.2769 
1179.3600   96.0597   93.2748    0.2853   10.7569    2.2714 
1179.4300   96.1185   93.2242    0.2852   10.7569    2.2658 
1179.5000   96.1218   93.4150    0.2850   10.8172    2.2605 
1179.5700   96.1303   93.6651    0.2848   10.8172    2.2560 
1179.6400   96.1658   93.8889    0.2847   10.7724    2.2526 
1179.7100   96.1257   93.9162    0.2848   10.7710    2.2506 
1179.7800   96.1828   93.9601    0.2850   10.6334    2.2498 
1179.8500   96.1209   94.1406    0.2851   10.5810    2.2499 
1179.9200   96.2079   94.4694    0.2852   10.4624    2.2510 
1179.9900   96.1534   94.8370    0.2853   10.3340    2.2526 
1180.0600   96.1419   95.2803    0.2855   10.2958    2.2546 
1180.1300   96.1298   95.6767    0.2858   10.1724    2.2566 
1180.2000   96.0173   95.8327    0.2862   10.1724    2.2587 
1180.2700   96.0419   95.9342    0.2869   10.1259    2.2608 
1180.3400   95.9466   95.9418    0.2877   10.1259    2.2630 
1180.4100   95.9303   95.9000    0.2889   10.1645    2.2651 
1180.4800   95.9958   95.7599    0.2900   10.1645    2.2671 
1180.5500   95.8521   95.5504    0.2910   10.1895    2.2690 
1180.6200   96.2076   95.3029    0.2919   10.1928    2.2707 
1180.6900   95.9929   95.1593    0.2927   10.1829    2.2720 
1180.7600   96.5337   95.0333    0.2932   10.1773    2.2730 
1180.8300   96.3776   94.8726    0.2933   10.1467    2.2735 
1180.9000   96.8433   94.7427    0.2931   10.0996    2.2738 
1180.9700   96.9057   94.6614    0.2927   10.0821    2.2738 
1181.0400   97.1418   94.7199    0.2923    9.9826    2.2736 
1181.1100   97.3531   94.8463    0.2919    9.9826    2.2732 
1181.1800   97.4488   94.9477    0.2915    9.8837    2.2728 
1181.2500   97.7026   95.0428    0.2909    9.8837    2.2724 
1181.3200   97.7145   95.2166    0.2904    9.8498    2.2721 
1181.3900   97.8766   95.4466    0.2901    9.8498    2.2720 
1181.4600   97.9006   95.7927    0.2900    9.8868    2.2722 
1181.5300   97.9411   96.1950    0.2896    9.8963    2.2725 
1181.6000   97.9901   96.4395    0.2892    9.9159    2.2729 
1181.6700   97.9948   96.7033    0.2888    9.9319    2.2732 
1181.7400   98.0350   96.7921    0.2885    9.9315    2.2735 
1181.8100   98.0349   96.7826    0.2881    9.9305    2.2738 
1181.8800   98.0721   96.8265    0.2879    9.9293    2.2740 
1181.9500   98.0636   96.6987    0.2876    9.9118    2.2744 
1182.0200   98.0842   96.4707    0.2875    9.9118    2.2752 
1182.0900   98.0887   96.3473    0.2874    9.8971    2.2766 
1182.1600   98.1072   96.2212    0.2873    9.8971    2.2785 
1182.2300   98.1282   96.0982    0.2872    9.8977    2.2804 
1182.3000   98.1249   96.0048    0.2869    9.8977    2.2820 
1182.3700   98.1873   96.0421    0.2867    9.9123    2.2831 
1182.4400   98.1762   95.9749    0.2867    9.9183    2.2838 
1182.5100   98.2839   95.8789    0.2869    9.9273    2.2841 
1182.5800   98.2811   95.9092    0.2871    9.9376    2.2840 
1182.6500   98.3829   96.0230    0.2876    9.9374    2.2837 
1182.7200   98.3678   96.1609    0.2883    9.9367    2.2832 
1182.7900   98.4292   96.2588    0.2892    9.9367    2.2828 
1182.8600   98.4205   96.4495    0.2902    9.9253    2.2825 
1182.9300   98.4435   96.7346    0.2911    9.9253    2.2820 
1183.0000   98.4566   96.9963    0.2920    9.9424    2.2815 
1183.0700   98.4759   97.0114    0.2927    9.9424    2.2809 
1183.1400   98.5167   96.8101    0.2934    9.9656    2.2806 
1183.2100   98.5051   96.4486    0.2938    9.9691    2.2807 
1183.2800   98.6110   96.0792    0.2942    9.9765    2.2811 
1183.3500   98.5693   95.6876    0.2944    9.9810    2.2818 
1183.4200   98.6558   95.4281    0.2947    9.9783    2.2828 
1183.4900   98.6266   95.2958    0.2953    9.9738    2.2838 
1183.5600   98.7404   95.1506    0.2958    9.9725    2.2848 
1183.6300   98.7299   94.9821    0.2963    9.9639    2.2854 
1183.7000   98.8043   94.8225    0.2969    9.9639    2.2858 
1183.7700   98.8203   94.6126    0.2973    9.9444    2.2857 
1183.8400   98.8484   94.3477    0.2978    9.9444    2.2853 
1183.9100   98.8563   94.1272    0.2981    9.9214    2.2844 
1183.9800   98.9444   94.0272    0.2984    9.9214    2.2832 
1184.0500   99.0259   93.9798    0.2987    9.8871    2.2815 
1184.1200   99.0437   93.9440    0.2989    9.8774    2.2796 
1184.1900   99.0945   94.0464    0.2990    9.8401    2.2774 
1184.2600   99.0987   94.1342    0.2989    9.8077    2.2751 
1184.3300   99.1878   94.1977    0.2988    9.7820    2.2728 
1184.4000   99.1607   94.4906    0.2984    9.7196    2.2706 
1184.4700   99.2527   94.7778    0.2981    9.7143    2.2686 
1184.5400   99.2227   94.8114    0.2979    9.6086    2.2669 
1184.6100   99.2857   94.7668    0.2978    9.6086    2.2655 
1184.6800   99.3061   94.6976    0.2979    9.5016    2.2644 
1184.7500   99.3276   94.7707    0.2981    9.5016    2.2637 
1184.8200   99.3622   94.8981    0.2985    9.4182    2.2634 
1184.8900   99.3942   94.9480    0.2991    9.4126    2.2634 
1184.9600   99.5407   94.8959    0.2996    9.3550    2.2638 
1185.0300   99.5359   94.8157    0.3000    9.3296    2.2644 
1185.1000   99.7610   94.8887    0.3005    9.2879    2.2653 
1185.1700   99.7686   95.1267    0.3008    9.2367    2.2663 
1185.2400   99.8060   95.5801    0.3010    9.2086    2.2674 
1185.3100   99.7895   95.9957    0.3012    9.0997    2.2686 
1185.3800   99.9150   96.2696    0.3015    9.0997    2.2700 
1185.4500   99.9287   96.6156    0.3018    8.9281    2.2715 
1185.5200  100.0824   96.9843    0.3021    8.9281    2.2731 
1185.5900  100.1424   97.2907    0.3025    8.7643    2.2749 
1185.6600  100.2617   97.6168    0.3028    8.7643    2.2769 
1185.7300  100.3351   97.9054    0.3030    8.6442    2.2789 
1185.8000  100.3738   98.1279    0.3033    8.6231    2.2807 
1185.8700  100.4144   98.4224    0.3035    8.5579    2.2821 
1185.9400  100.4363   98.8781    0.3038    8.5156    2.2830 
1186.0100  100.5709   99.1685    0.3041    8.4847    2.2831 
1186.0800  100.5562   99.3352    0.3045    8.4303    2.2825 
1186.1500  100.7268   99.5356    0.3048    8.4196    2.2814 
1186.2200  100.7176   99.6823    0.3053    8.3395    2.2801 
1186.2900  100.8589   99.9126    0.3057    8.3395    2.2790 
1186.3600  100.8846  100.0907    0.3061    8.1944    2.2782 
1186.4300  101.1159  100.2454    0.3064    8.1944    2.2779 
1186.5000  101.2450  100.3883    0.3067    7.9787    2.2780 
1186.5700  101.2644  100.5578    0.3069    7.9787    2.2785 
1186.6400  101.2540  100.8236    0.3069    7.8370    2.2793 
1186.7100  101.2469  101.0321    0.3071    7.7931    2.2805 
1186.7800  101.0511  101.2912    0.3074    7.7313    2.2821 
1186.8500  101.0608  101.5043    0.3078    7.6742    2.2840 
1186.9200   99.5020  101.5496    0.3084    7.6501    2.2861 
1186.9900   99.5524  101.6430    0.3093    7.5870    2.2885 
1187.0600   99.8558  101.8982    0.3103    7.5837    2.2911 
1187.1300   99.9340  102.3170    0.3113    7.4842    2.2935 
1187.2000  100.2529  102.7346    0.3123    7.4842    2.2955 
1187.2700  100.3554  103.0900    0.3134    7.3567    2.2971 
1187.3400  100.7761  103.5454    0.3143    7.3567    2.2985 
1187.4100  100.9310  104.0215    0.3150    7.2185    2.2999 
1187.4800  100.8853  104.5381    0.3154    7.2067    2.3013 
1187.5500   99.8358  105.1001    0.3157    7.0984    2.3027 
1187.6200  100.2241  105.6467    0.3159    7.0468    2.3044 
1187.6900  100.4453  106.1405    0.3159    6.9814    2.3066 
1187.7600  100.6472  106.5030    0.3158    6.8959    2.3090 
1187.8300  100.9098  106.9054    0.3158    6.8683    2.3117 
1187.9000  101.0029  107.2093    0.3160    6.7497    2.3146 
1187.9700  100.3384  107.2837    0.3161    6.7497    2.3177 
1188.0400  100.3166  107.4553    0.3161    6.5994    2.3211 
