~VERSION INFORMATION
 VERS.                 2.0:   CWLS LOG ASCII STANDARD - VERSION 2.0
 WRAP.                  NO:   SINGLE LINE PER DEPTH STEP
 CREA.                 09/05/2023 10:30:38
#CREATED USING IP VERSION 4.7.2022.12301 BY USER15 ON 09/05/2023 10:30:38

~WELL INFORMATION
#MNEM.UNIT       DATA                          DESCRIPTION MNEMONIC
#---------      ---------------------------   --------------------------
 STRT    .M         800.0300                  : START DEPTH
 STOP    .M         2100.0000                 : STOP DEPTH
 STEP    .M         0.0700                    : STEP VALUE
 NULL    .      -999.0000                     : NULL VALUE
 DATE    .      09/05/2023                    : LAS file Creation Date
 WELL   .      PPWell         : Well Name
 COMP   .                     : Company
 FLD    .                     : Field
 UWI    .                     : Unique Well Identifier (UWI)
 LOC    .                     : Location
 PROV   .                     : Province
 PDAT   .      Mean Sea Level : Permanent Datum
 EPDAT  .      0              : Elevation of Permanent Datum
 LGMEA  .      KB             : Log Measured from
 DRMEA  .      KB             : Drill Measured From
 APDAT  .      10             : Elevation Above Permanent Datum
 RWS    .      -999           : Def_Rw
 WST    .      -999           : Def_Rwt
 SRVC   .      SCH            : Contractor
 GDAT   .      (Undefined)    : Geodatum
 LONG   .      0              : Longitude
 LATI   .      0              : Latitude
 COORDIN.                     : Grid System
 XCOORD .                     : X or East-West Coordinate
 YCOORD .                     : Y or North-South Coordinate

~CURVE INFORMATION
#MNEM              UNIT         API CODE    Curve Type   Comments
#----------  ---------------- ------------  ----------   -----------
 DEPTH      .M                              : Depth       
 DT         .US/F                           : Sonic       Sonic
 GR         .GAPI                           : GammaRay    
 NPHI       .V/V                            : Neutron     Neutron
 RD         .OHMM                           : DeepRes     DeepRes
 RHOB       .G/C3                           : Density     Density

~A  DEPTH     DT        GR       NPHI       RD       RHOB   
# ...
 966.3500    0.0000   53.2460    0.4583   21.7847    2.3932 
 966.4200    0.0000   52.9854    0.4583   22.3034    2.3945 
 966.4900    0.0000   52.7229    0.4583   22.5008    2.3950 
 966.5600    0.0000   52.5374    0.4579   22.4506    2.3932 
 966.6300    0.0000   52.3899    0.4573   22.3964    2.3857 
 966.7000    0.0000   52.1297    0.4568   22.3791    2.3727 
 966.7700    0.0000   51.7037    0.4563   22.3233    2.3590 
 966.8400    0.0000   51.3304    0.4557   22.3233    2.3457 
 966.9100    0.0000   51.0606    0.4558   21.1474    2.3330 
 966.9800    0.0000   50.7077    0.4565   21.1474    2.3210 
 967.0500    0.0000   50.4145    0.4577   20.2919    2.3138 
 967.1200    0.0000   50.2710    0.4590   20.2919    2.3130 
 967.1900    0.0000   50.1036    0.4601   19.8286    2.3148 
 967.2600    0.0000   49.8658    0.4614   19.7666    2.3165 
 967.3300    0.0000   49.6697    0.4623   19.8709    2.3183 
 967.4000    0.0000   49.4897    0.4626   19.9301    2.3198 
 967.4700    0.0000   49.2958    0.4629   19.9108    2.3166 
 967.5400    0.0000   49.1433    0.4635   19.8810    2.3128 
 967.6100    0.0000   49.0865    0.4642   19.9071    2.3093 
 967.6800    0.0000   49.0180    0.4651   20.0556    2.3061 
 967.7500    0.0000   48.8546    0.4661   20.0556    2.3001 
 967.8200    0.0000   48.7437    0.4673   20.4975    2.2884 
 967.8900    0.0000   48.6559    0.4682   20.4975    2.2755 
 967.9600    0.0000   48.5774    0.4686   21.0679    2.2645 
 968.0300    0.0000   48.4682    0.4690   21.0679    2.2534 
 968.1000    0.0000   48.2299    0.4691   21.8895    2.2424 
 968.1700    0.0000   47.9264    0.4691   22.1010    2.2325 
 968.2400    0.0000   47.7428    0.4692   22.8554    2.2274 
 968.3100    0.0000   47.5754    0.4692   23.4698    2.2242 
 968.3800    0.0000   47.2756    0.4694   23.7731    2.2167 
 968.4500    0.0000   46.9552    0.4697   24.4576    2.2039 
 968.5200    0.0000   46.6377    0.4700   24.4746    2.1880 
 968.5900    0.0000   46.3509    0.4709   24.7278    2.1714 
 968.6600    0.0000   46.1296    0.4719   24.7278    2.1547 
 968.7300    0.0000   45.9436    0.4730   25.0994    2.1391 
 968.8000    0.0000   45.7035    0.4744   25.0994    2.1293 
 968.8700    0.0000   45.4181    0.4760   25.3950    2.1255 
 968.9400    0.0000   45.1492    0.4771   25.4097    2.1280 
 969.0100    0.0000   44.9233    0.4778   26.0337    2.1317 
 969.0800    0.0000   44.6826    0.4780   26.2902    2.1351 
 969.1500    0.0000   44.3836    0.4784   26.5905    2.1329 
 969.2200    0.0000   44.0372    0.4786   26.9365    2.1272 
 969.2900    0.0000   43.7587    0.4783   27.0624    2.1205 
 969.3600    0.0000   43.5789    0.4781   27.5077    2.1134 
 969.4300    0.0000   43.3987    0.4784   27.5077    2.1062 
 969.5000    0.0000   43.0957    0.4788   27.6762    2.0990 
 969.5700    0.0000   42.6519    0.4791   27.6762    2.0945 
 969.6400    0.0000   42.1928    0.4791   26.9675    2.0957 
 969.7100    0.0000   41.8035    0.4794   26.9675    2.0984 
 969.7800    0.0000   41.4642    0.4792   26.8709    2.1010 
 969.8500    0.0000   41.0979    0.4788   26.8560    2.1033 
 969.9200    0.0000   40.6992    0.4783   26.5271    2.1054 
 969.9900    0.0000   40.4402    0.4782   26.3274    2.1072 
 970.0600    0.0000   40.3366    0.4785   26.3401    2.1086 
 970.1300    0.0000   40.3537    0.4789   26.3610    2.1096 
 970.2000    0.0000   40.4374    0.4792   26.3008    2.1106 
 970.2700    0.0000   40.4193    0.4800   25.9115    2.1114 
 970.3400    0.0000   40.3883    0.4811   25.9115    2.1120 
 970.4100    0.0000   40.4887    0.4826   25.8343    2.1125 
 970.4800    0.0000   40.6555    0.4842   25.8343    2.1128 
 970.5500    0.0000   40.7047    0.4859   25.4447    2.1129 
 970.6200    0.0000   40.6406    0.4879   25.4447    2.1129 
 970.6900    0.0000   40.5255    0.4893   24.9719    2.1126 
 970.7600    0.0000   40.4011    0.4897   24.8382    2.1118 
 970.8300    0.0000   40.2683    0.4898   24.7345    2.1106 
 970.9000    0.0000   40.0928    0.4897   24.6445    2.1088 
 970.9700    0.0000   39.8039    0.4896   24.7124    2.1126 
 971.0400    0.0000   39.5013    0.4892   24.8773    2.1230 
 971.1100    0.0000   39.2526    0.4888   24.9065    2.1401 
 971.1800    0.0000   39.1652    0.4888   25.4943    2.1654 
 971.2500    0.0000   39.1594    0.4890   25.4943    2.1973 
 971.3200    0.0000   39.0602    0.4889   25.3481    2.2367 
 971.3900    0.0000   38.9916    0.4889   25.3481    2.2812 
 971.4600    0.0000   39.0023    0.4887   25.4722    2.3256 
 971.5300    0.0000   38.9367    0.4884   25.4806    2.3701 
 971.6000    0.0000   38.8954    0.4877   25.9848    2.4143 
 971.6700    0.0000   38.9902    0.4868   26.2082    2.4582 
 971.7400    0.0000   39.0876    0.4864   26.1358    2.5018 
 971.8100    0.0000   39.1695    0.4859   26.0469    2.5454 
 971.8800    0.0000   39.2762    0.4852   26.3177    2.5882 
 971.9500    0.0000   39.4312    0.4844   27.3699    2.6242 
 972.0200    0.0000   39.6843    0.4837   27.3699    2.6535 
 972.0900    0.0000   39.9789    0.4833   28.0778    2.6748 
 972.1600    0.0000   40.1913    0.4828   28.0778    2.6895 
 972.2300    0.0000   40.4143    0.4821   28.3029    2.7014 
 972.3000    0.0000   40.7749    0.4818   28.3029    2.7121 
 972.3700    0.0000   41.1321    0.4821   28.0479    2.7250 
 972.4400    0.0000   41.4789    0.4826   28.0030    2.7443 
 972.5100    0.0000   41.6958    0.4831   27.8164    2.7684 
 972.5800    0.0000   41.6990    0.4836   27.6953    2.7936 
 972.6500    0.0000   41.6884    0.4845   27.5577    2.8181 
 972.7200    0.0000   41.8034    0.4854   27.3153    2.8373 
 972.7900    0.0000   42.0112    0.4861   27.1741    2.8506 
 972.8600    0.0000   42.1011    0.4868   26.1195    2.8577 
 972.9300    0.0000   42.1492    0.4873   26.1195    2.8591 
 973.0000    0.0000   42.2428    0.4872   25.3439    2.8578 
 973.0700    0.0000   42.2328    0.4868   25.3439    2.8554 
 973.1400    0.0000   42.2735    0.4861   24.3317    2.8525 
 973.2100    0.0000   42.3544    0.4857   24.3317    2.8496 
 973.2800    0.0000   42.4958    0.4854   23.3831    2.8470 
 973.3500    0.0000   42.7133    0.4851   23.0897    2.8449 
 973.4200    0.0000   42.9970    0.4848   22.4481    2.8432 
 973.4900    0.0000   43.2998    0.4848   21.8550    2.8419 
 973.5600    0.0000   43.5347    0.4847   21.8257    2.8406 
 973.6300    0.0000   43.6912    0.4847   21.7488    2.8394 
 973.7000    0.0000   43.8635    0.4846   21.7406    2.8382 
 973.7700    0.0000   44.0526    0.4844   21.4875    2.8370 
 973.8400    0.0000   44.3679    0.4841   21.4875    2.8356 
 973.9100    0.0000   44.7294    0.4838   20.7676    2.8343 
 973.9800    0.0000   44.9753    0.4839   20.7676    2.8333 
 974.0500    0.0000   45.1993    0.4840   20.7660    2.8326 
 974.1200    0.0000   45.3536    0.4838   20.7659    2.8331 
 974.1900    0.0000   45.4151    0.4838   21.0130    2.8386 
 974.2600    0.0000   45.5382    0.4839   21.1309    2.8493 
 974.3300    0.0000   45.7630    0.4844   21.2755    2.8614 
 974.4000   56.4340   45.9187    0.4850   21.4649    2.8738 
 974.4700   57.2561   45.9555    0.4852   21.6186    2.8870 
 974.5400   57.2561   46.0844    0.4858   22.2781    2.9027 
 974.6100   57.9517   46.3671    0.4862   22.2781    2.9209 
 974.6800   57.9922   46.6838    0.4862   23.2222    2.9355 
 974.7500   58.4492   46.9547    0.4865   23.2222    2.9470 
 974.8200   58.6444   47.1442    0.4869   23.6467    2.9582 
 974.8900   58.9121   47.3164    0.4864   23.6467    2.9694 
 974.9600   59.2307   47.4975    0.4860   24.3400    2.9771 
 975.0300   59.3452   47.7287    0.4856   24.4774    2.9731 
 975.1000   59.7691   47.9211    0.4852   24.5486    2.9598 
 975.1700   59.7691   47.9957    0.4845   24.5979    2.9423 
 975.2400   60.2547   47.9497    0.4835   24.9156    2.9179 
 975.3100   60.2547   47.8575    0.4829   25.5148    2.8871 
 975.3800   60.6849   47.8329    0.4826   25.6105    2.8493 
 975.4500   60.6849   47.9177    0.4822   26.4497    2.8098 
 975.5200   61.0238   48.0110    0.4819   26.4497    2.7697 
