~VERSION INFORMATION
 VERS.                 2.0:   CWLS LOG ASCII STANDARD - VERSION 2.0
 WRAP.                  NO:   SINGLE LINE PER DEPTH STEP
 CREA.                 09/05/2023 10:30:38
#CREATED USING IP VERSION 4.7.2022.12301 BY USER15 ON 09/05/2023 10:30:38

~WELL INFORMATION
#MNEM.UNIT       DATA                          DESCRIPTION MNEMONIC
#---------      ---------------------------   --------------------------
 STRT    .M         800.0300                  : START DEPTH
 STOP    .M         2100.0000                 : STOP DEPTH
 STEP    .M         0.0700                    : STEP VALUE
 NULL    .      -999.0000                     : NULL VALUE
 DATE    .      09/05/2023                    : LAS file Creation Date
 WELL   .      PPWell         : Well Name
 COMP   .                     : Company
 FLD    .                     : Field
 UWI    .                     : Unique Well Identifier (UWI)
 LOC    .                     : Location
 PROV   .                     : Province
 PDAT   .      Mean Sea Level : Permanent Datum
 EPDAT  .      0              : Elevation of Permanent Datum
 LGMEA  .      KB             : Log Measured from
 DRMEA  .      KB             : Drill Measured From
 APDAT  .      10             : Elevation Above Permanent Datum
 RWS    .      -999           : Def_Rw
 WST    .      -999           : Def_Rwt
 SRVC   .      SCH            : Contractor
 GDAT   .      (Undefined)    : Geodatum
 LONG   .      0              : Longitude
 LATI   .      0              : Latitude
 COORDIN.                     : Grid System
 XCOORD .                     : X or East-West Coordinate
 YCOORD .                     : Y or North-South Coordinate

~CURVE INFORMATION
#MNEM              UNIT         API CODE    Curve Type   Comments
#----------  ---------------- ------------  ----------   -----------
 DEPTH      .M                              : Depth       
 DT         .US/F                           : Sonic       Sonic
 GR         .GAPI                           : GammaRay    
 NPHI       .V/V                            : Neutron     Neutron
 RD         .OHMM                           : DeepRes     DeepRes
 RHOB       .G/C3                           : Density     Density

~A  DEPTH     DT        GR       NPHI       RD       RHOB   
# ...
1040.2700  108.0228   77.0510    0.3563   13.5295    2.1646 
1040.3400  108.0583   77.6924    0.3560   13.4668    2.1647 
1040.4100  108.0259   78.4580    0.3560   13.4551    2.1647 
1040.4800  108.0587   79.2645    0.3560   13.3916    2.1645 
1040.5500  107.9930   80.0121    0.3562   13.3490    2.1642 
1040.6200  108.0565   80.6323    0.3564   13.3131    2.1639 
1040.6900  108.0264   81.2206    0.3567   13.2476    2.1638 
1040.7600  108.0298   81.8047    0.3572   13.2321    2.1639 
1040.8300  108.0236   82.3191    0.3575   13.1075    2.1640 
1040.9000  108.0266   82.8256    0.3576   13.1075    2.1642 
1040.9700  108.0188   83.2432    0.3578   12.8963    2.1645 
1041.0400  108.0376   83.6326    0.3579   12.8963    2.1651 
1041.1100  108.0663   84.1821    0.3578   12.6319    2.1660 
1041.1800  108.0735   84.6509    0.3578   12.6319    2.1669 
1041.2500  108.0430   84.9293    0.3579   12.4278    2.1678 
1041.3200  108.0537   85.1944    0.3581   12.3619    2.1688 
1041.3900  108.1069   85.4894    0.3583   12.2495    2.1698 
1041.4600  108.1457   85.7041    0.3587   12.1424    2.1708 
1041.5300  108.1903   86.0491    0.3592   12.0964    2.1717 
1041.6000  108.2267   86.5386    0.3597   11.9706    2.1726 
1041.6700  108.2192   86.9257    0.3600   11.9668    2.1733 
1041.7400  108.2127   87.0552    0.3603   11.8094    2.1738 
1041.8100  108.2339   87.3053    0.3606   11.8094    2.1741 
1041.8800  108.2516   87.6999    0.3607   11.6857    2.1742 
1041.9500  108.2900   88.1052    0.3606   11.6857    2.1743 
1042.0200  108.2821   88.3977    0.3603   11.6129    2.1742 
1042.0900  108.2105   88.5013    0.3603   11.6060    2.1740 
1042.1600  108.1814   88.5446    0.3605   11.5637    2.1738 
1042.2300  108.2496   88.4721    0.3608   11.5428    2.1737 
1042.3000  108.2473   88.5717    0.3613   11.5233    2.1738 
1042.3700  108.2616   88.7963    0.3619   11.4970    2.1741 
1042.4400  108.2578   88.9631    0.3624   11.4926    2.1743 
1042.5100  108.2542   89.0984    0.3627   11.4727    2.1747 
1042.5800  108.2299   89.2527    0.3630   11.4727    2.1752 
1042.6500  108.2329   89.3615    0.3630   11.4403    2.1759 
1042.7200  108.2617   89.5418    0.3629   11.4403    2.1767 
1042.7900  108.2691   89.8981    0.3628   11.4454    2.1774 
1042.8600  108.2459   90.1553    0.3627   11.4454    2.1781 
1042.9300  108.2334   90.3141    0.3625   11.4604    2.1787 
1043.0000  108.2406   90.6587    0.3622   11.4635    2.1792 
1043.0700  108.2554   91.0016    0.3616   11.4926    2.1795 
1043.1400  108.3088   91.3723    0.3611   11.5134    2.1797 
1043.2100  108.3139   91.8353    0.3605   11.5175    2.1799 
1043.2800  108.3610   92.2875    0.3601   11.5254    2.1801 
1043.3500  108.3783   92.7279    0.3596   11.5213    2.1804 
1043.4200  108.4050   92.9773    0.3594   11.4820    2.1807 
1043.4900  108.4699   93.0520    0.3590   11.4820    2.1813 
1043.5600  108.4871   92.9758    0.3587   11.4360    2.1819 
1043.6300  108.5478   92.9198    0.3583   11.4360    2.1825 
1043.7000  108.5632   92.9197    0.3580   11.3947    2.1829 
1043.7700  108.6111   92.8907    0.3577   11.3941    2.1832 
1043.8400  108.6346   92.8555    0.3571   11.3711    2.1835 
1043.9100  108.6473   92.8802    0.3566   11.3630    2.1835 
1043.9800  108.6668   92.9427    0.3563   11.3577    2.1833 
1044.0500  108.6593   92.9648    0.3558   11.3523    2.1829 
1044.1200  108.6927   92.8030    0.3555   11.3495    2.1825 
1044.1900  108.6981   92.5052    0.3553   11.3409    2.1821 
1044.2600  108.7366   92.1946    0.3552   11.3407    2.1817 
1044.3300  108.7238   92.0027    0.3553   11.3105    2.1814 
1044.4000  108.7111   92.0266    0.3552   11.3105    2.1810 
1044.4700  108.7129   92.1742    0.3551   11.2424    2.1807 
1044.5400  108.7403   92.2300    0.3549   11.2424    2.1802 
1044.6100  108.7690   92.1352    0.3548   11.1504    2.1797 
1044.6800  108.8236   92.2119    0.3545   11.1399    2.1790 
1044.7500  108.8215   92.4697    0.3544   11.0853    2.1781 
1044.8200  108.8681   92.5498    0.3542   11.0564    2.1772 
1044.8900  108.8960   92.5841    0.3542   11.0260    2.1764 
1044.9600  108.9205   92.7311    0.3544   10.9821    2.1755 
1045.0300  108.9604   92.9284    0.3546   10.9672    2.1745 
1045.1000  108.9855   92.8823    0.3548   10.8921    2.1736 
1045.1700  108.9813   92.7739    0.3550   10.8921    2.1726 
1045.2400  108.9738   92.5510    0.3551   10.8021    2.1715 
1045.3100  109.0065   92.0554    0.3554   10.8021    2.1703 
1045.3800  109.0323   91.6174    0.3557   10.7882    2.1692 
1045.4500  109.1081   91.2901    0.3564   10.7882    2.1682 
1045.5200  109.1111   90.9592    0.3568   10.8369    2.1670 
1045.5900  109.0841   90.6878    0.3570   10.8483    2.1659 
1045.6600  109.1427   90.3632    0.3574   10.8910    2.1650 
1045.7300  109.1838   89.8489    0.3577   10.9236    2.1644 
1045.8000  109.2541   89.3363    0.3578   10.9502    2.1638 
1045.8700  109.3006   89.0037    0.3576   11.0058    2.1632 
1045.9400  109.3730   88.7446    0.3574   11.0143    2.1627 
1046.0100  109.3708   88.3999    0.3572   11.1141    2.1624 
1046.0800  109.3956   88.0168    0.3568   11.1141    2.1621 
1046.1500  109.4136   87.5141    0.3563   11.2469    2.1616 
1046.2200  109.4789   87.1640    0.3560   11.2469    2.1610 
1046.2900  109.4919   86.8950    0.3560   11.4164    2.1603 
1046.3600  109.5233   86.5719    0.3561   11.4219    2.1597 
1046.4300  109.5359   86.2846    0.3564   11.5767    2.1591 
1046.5000  109.5367   86.1197    0.3569   11.6356    2.1585 
1046.5700  109.5768   85.7936    0.3575   11.7384    2.1579 
1046.6400  109.6078   85.3246    0.3579   11.8497    2.1574 
1046.7100  109.6491   85.0571    0.3581   11.8933    2.1570 
1046.7800  109.6599   84.8806    0.3583   12.0344    2.1565 
1046.8500  109.7004   84.5324    0.3585   12.0344    2.1559 
1046.9200  109.6978   84.1194    0.3587   12.1670    2.1552 
1046.9900  109.7460   83.7724    0.3589   12.1670    2.1547 
1047.0600  109.7657   83.5224    0.3592   12.2399    2.1543 
1047.1300  109.7960   83.3643    0.3597   12.2399    2.1539 
1047.2000  109.8142   83.1621    0.3603   12.2512    2.1537 
1047.2700  109.8009   83.0281    0.3610   12.2527    2.1537 
1047.3400  109.8407   82.9506    0.3617   12.2544    2.1540 
1047.4100  109.8385   82.8386    0.3622   12.2554    2.1544 
1047.4800  109.8598   82.6860    0.3627   12.2580    2.1547 
1047.5500  109.8406   82.4446    0.3629   12.2621    2.1550 
1047.6200  109.8741   82.1252    0.3630   12.2635    2.1553 
1047.6900  109.8882   81.8797    0.3634   12.2715    2.1557 
1047.7600  109.9165   81.5591    0.3637   12.2715    2.1559 
1047.8300  109.9270   81.2948    0.3642   12.2609    2.1560 
1047.9000  109.9440   81.2727    0.3651   12.2609    2.1561 
1047.9700  109.9400   81.3738    0.3662   12.2180    2.1564 
1048.0400  109.9316   81.3104    0.3675   12.2180    2.1568 
1048.1100  109.9658   81.2054    0.3688   12.1875    2.1572 
1048.1800  110.0577   81.0000    0.3699   12.1797    2.1573 
1048.2500  110.0585   80.7450    0.3704   12.1916    2.1574 
1048.3200  110.0417   80.4058    0.3705   12.2013    2.1575 
1048.3900  110.0545   79.9074    0.3701   12.2133    2.1576 
1048.4600  110.0556   79.5328    0.3696   12.2403    2.1575 
1048.5300  110.0849   79.3932    0.3689   12.2436    2.1572 
1048.6000  110.1153   79.4775    0.3682   12.2915    2.1566 
1048.6700  110.1543   79.4391    0.3677   12.2915    2.1561 
1048.7400  110.1549   79.3211    0.3678   12.4022    2.1554 
1048.8100  110.1600   79.4300    0.3682   12.4022    2.1544 
1048.8800  110.1621   79.4651    0.3688   12.5488    2.1529 
1048.9500  110.2242   79.4410    0.3695   12.5561    2.1514 
1049.0200  110.2309   79.4734    0.3704   12.6073    2.1499 
1049.0900  110.3189   79.4612    0.3713   12.6284    2.1485 
1049.1600  110.3335   79.3291    0.3721   12.6350    2.1470 
1049.2300  110.3746   79.4064    0.3726   12.6425    2.1457 
1049.3000  110.4210   79.5793    0.3729   12.6471    2.1447 
1049.3700  110.4541   79.7660    0.3733   12.6633    2.1439 
1049.4400  110.4564   80.0647    0.3738   12.6633    2.1432 
