~VERSION INFORMATION
 VERS.                 2.0:   CWLS LOG ASCII STANDARD - VERSION 2.0
 WRAP.                  NO:   SINGLE LINE PER DEPTH STEP
 CREA.                 09/05/2023 10:30:38
#CREATED USING IP VERSION 4.7.2022.12301 BY USER15 ON 09/05/2023 10:30:38

~WELL INFORMATION
#MNEM.UNIT       DATA                          DESCRIPTION MNEMONIC
#---------      ---------------------------   --------------------------
 STRT    .M         800.0300                  : START DEPTH
 STOP    .M         2100.0000                 : STOP DEPTH
 STEP    .M         0.0700                    : STEP VALUE
 NULL    .      -999.0000                     : NULL VALUE
 DATE    .      09/05/2023                    : LAS file Creation Date
 WELL   .      PPWell         : Well Name
 COMP   .                     : Company
 FLD    .                     : Field
 UWI    .                     : Unique Well Identifier (UWI)
 LOC    .                     : Location
 PROV   .                     : Province
 PDAT   .      Mean Sea Level : Permanent Datum
 EPDAT  .      0              : Elevation of Permanent Datum
 LGMEA  .      KB             : Log Measured from
 DRMEA  .      KB             : Drill Measured From
 APDAT  .      10             : Elevation Above Permanent Datum
 RWS    .      -999           : Def_Rw
 WST    .      -999           : Def_Rwt
 SRVC   .      SCH            : Contractor
 GDAT   .      (Undefined)    : Geodatum
 LONG   .      0              : Longitude
 LATI   .      0              : Latitude
 COORDIN.                     : Grid System
 XCOORD .                     : X or East-West Coordinate
 YCOORD .                     : Y or North-South Coordinate

~CURVE INFORMATION
#MNEM              UNIT         API CODE    Curve Type   Comments
#----------  ---------------- ------------  ----------   -----------
 DEPTH      .M                              : Depth       
 DT         .US/F                           : Sonic       Sonic
 GR         .GAPI                           : GammaRay    
 NPHI       .V/V                            : Neutron     Neutron
 RD         .OHMM                           : DeepRes     DeepRes
 RHOB       .G/C3                           : Density     Density

~A  DEPTH     DT        GR       NPHI       RD       RHOB   
# ...
1326.7100   97.1610   99.7970    0.2913    7.6337    2.3025 
1326.7800   97.2071   99.5803    0.2915    7.6337    2.3023 
1326.8500   97.2051   99.3160    0.2918    7.6309    2.3021 
1326.9200   97.2130   99.2937    0.2919    7.6303    2.3020 
1326.9900   97.2092   99.4352    0.2918    7.6295    2.3020 
1327.0600   97.2131   99.6614    0.2918    7.6289    2.3022 
1327.1300   97.1944  100.0430    0.2917    7.6284    2.3025 
1327.2000   97.2145  100.2480    0.2917    7.6272    2.3030 
1327.2700   97.2048  100.2134    0.2916    7.6267    2.3036 
1327.3400   97.2109  100.2250    0.2914    7.6204    2.3043 
1327.4100   97.2054  100.3214    0.2912    7.6204    2.3050 
1327.4800   97.2108  100.3842    0.2909    7.6091    2.3056 
1327.5500   97.2423  100.3604    0.2907    7.6091    2.3059 
1327.6200   97.2425  100.1605    0.2905    7.6004    2.3062 
1327.6900   97.2793  100.0934    0.2903    7.6001    2.3065 
1327.7600   97.2829  100.1074    0.2902    7.5931    2.3069 
1327.8300   97.2945  100.0753    0.2902    7.5904    2.3072 
1327.9000   97.3063  100.0318    0.2902    7.5856    2.3077 
1327.9700   97.3137   99.9784    0.2905    7.5803    2.3084 
1328.0400   97.3316   99.9339    0.2907    7.5776    2.3093 
1328.1100   97.3384  100.0610    0.2911    7.5688    2.3102 
1328.1800   97.3496  100.2501    0.2914    7.5688    2.3113 
1328.2500   97.3542  100.4134    0.2916    7.5557    2.3123 
1328.3200   97.3567  100.6808    0.2917    7.5557    2.3134 
1328.3900   97.3550  100.9353    0.2919    7.5435    2.3145 
1328.4600   97.3516  101.1456    0.2919    7.5435    2.3154 
1328.5300   97.3470  101.4920    0.2919    7.5367    2.3162 
1328.6000   97.3429  101.7738    0.2919    7.5357    2.3170 
1328.6700   97.3525  101.8735    0.2917    7.5327    2.3177 
1328.7400   97.3569  101.7309    0.2917    7.5309    2.3184 
1328.8100   97.3871  101.5446    0.2917    7.5298    2.3190 
1328.8800   97.3903  101.4448    0.2917    7.5282    2.3195 
1328.9500   97.3937  101.4484    0.2918    7.5281    2.3199 
1329.0200   97.3987  101.4563    0.2922    7.5278    2.3202 
1329.0900   97.2550  101.4179    0.2925    7.5278    2.3202 
1329.1600   97.2396  101.2757    0.2928    7.5280    2.3199 
1329.2300   97.0932  101.1463    0.2930    7.5280    2.3194 
1329.3000   97.0135  101.0817    0.2933    7.5257    2.3188 
1329.3700   96.9065  101.0631    0.2935    7.5257    2.3180 
1329.4400   96.7555  101.1499    0.2936    7.5205    2.3171 
1329.5100   96.7132  101.2101    0.2936    7.5192    2.3164 
1329.5800   96.5483  101.3678    0.2937    7.5126    2.3159 
1329.6500   96.5418  101.6029    0.2938    7.5071    2.3156 
1329.7200   96.4733  101.8185    0.2935    7.5048    2.3156 
1329.7900   96.4659  101.8348    0.2930    7.4992    2.3157 
1329.8600   96.4743  101.6570    0.2921    7.4996    2.3161 
1329.9300   96.4693  101.4630    0.2911    7.5064    2.3167 
1330.0000   96.4722  101.3711    0.2901    7.5064    2.3173 
1330.0700   96.4729  101.4883    0.2889    7.5453    2.3178 
1330.1400   96.4784  101.5186    0.2878    7.5453    2.3181 
1330.2100   96.4875  101.4851    0.2869    7.6451    2.3183 
1330.2800   96.4747  101.5052    0.2862    7.6509    2.3184 
1330.3500   96.4920  101.4947    0.2858    7.7268    2.3183 
1330.4200   96.4782  101.4888    0.2855    7.7592    2.3182 
1330.4900   96.4927  101.4150    0.2854    7.7744    2.3181 
1330.5600   96.4834  101.2291    0.2856    7.7924    2.3185 
1330.6300   96.4951  101.0471    0.2858    7.7904    2.3194 
1330.7000   96.4826  101.1146    0.2859    7.7830    2.3208 
1330.7700   96.4829  101.2710    0.2860    7.7830    2.3228 
1330.8400   96.4744  101.1610    0.2861    7.7768    2.3254 
1330.9100   96.4676  101.0805    0.2863    7.7768    2.3283 
1330.9800   96.4683  101.1054    0.2865    7.7791    2.3311 
1331.0500   96.4435  101.1117    0.2869    7.7791    2.3335 
1331.1200   96.4455  101.0873    0.2875    7.7799    2.3355 
1331.1900   96.4213  101.0899    0.2881    7.7800    2.3368 
1331.2600   96.4314  101.0342    0.2887    7.7809    2.3376 
1331.3300   96.4061  100.9822    0.2893    7.7815    2.3379 
1331.4000   96.4285  101.0780    0.2899    7.7844    2.3377 
1331.4700   96.4088  100.9772    0.2904    7.7892    2.3375 
1331.5400   96.4295  100.8154    0.2906    7.7915    2.3373 
1331.6100   96.4147  100.6908    0.2907    7.8077    2.3371 
1331.6800   96.4138  100.4916    0.2905    7.8077    2.3370 
1331.7500   96.4080  100.3577    0.2904    7.8376    2.3368 
1331.8200   96.4002  100.3562    0.2903    7.8376    2.3365 
1331.8900   96.4077  100.3391    0.2901    7.8736    2.3359 
1331.9600   96.3990  100.2577    0.2900    7.8736    2.3351 
1332.0300   96.4200  100.1105    0.2898    7.8965    2.3339 
1332.1000   96.3994   99.7674    0.2897    7.9033    2.3323 
1332.1700   96.4186   99.3430    0.2895    7.9143    2.3304 
1332.2400   96.3981   99.1016    0.2891    7.9243    2.3282 
1332.3100   96.4178   99.1170    0.2889    7.9300    2.3261 
1332.3800   96.3956   99.1666    0.2885    7.9444    2.3241 
1332.4500   96.4005   99.3938    0.2882    7.9452    2.3224 
1332.5200   96.3848   99.6324    0.2878    7.9640    2.3211 
1332.5900   96.3780   99.6882    0.2874    7.9640    2.3201 
1332.6600   96.3773   99.6811    0.2869    7.9786    2.3193 
1332.7300   96.3601   99.5807    0.2861    7.9786    2.3186 
1332.8000   96.3639   99.6512    0.2853    7.9889    2.3180 
1332.8700   96.3427   99.8282    0.2847    7.9897    2.3174 
1332.9400   96.3498   99.8712    0.2841    7.9967    2.3168 
1333.0100   96.3250   99.7521    0.2835    8.0000    2.3162 
1333.0800   96.3490   99.5091    0.2829    8.0045    2.3158 
1333.1500   96.3212   99.4207    0.2824    8.0102    2.3156 
1333.2200   96.3425   99.4501    0.2821    8.0123    2.3156 
1333.2900   96.3248   99.5407    0.2818    8.0209    2.3156 
1333.3600   96.3421   99.6010    0.2815    8.0209    2.3155 
1333.4300   96.3347   99.5890    0.2813    8.0320    2.3154 
1333.5000   96.3339   99.4646    0.2814    8.0320    2.3151 
1333.5700   96.3390   99.3304    0.2815    8.0427    2.3146 
1333.6400   96.3256   99.5089    0.2817    8.0427    2.3139 
1333.7100   96.3348   99.7627    0.2818    8.0517    2.3131 
1333.7800   96.3223   99.9554    0.2820    8.0534    2.3123 
1333.8500   96.3343  100.1826    0.2820    8.0586    2.3116 
1333.9200   96.3199  100.3889    0.2821    8.0620    2.3109 
1333.9900   96.3372  100.3965    0.2820    8.0644    2.3104 
1334.0600   96.3371  100.3055    0.2817    8.0689    2.3101 
1334.1300   96.3558  100.2487    0.2813    8.0698    2.3099 
1334.2000   96.3557  100.2857    0.2808    8.0776    2.3099 
1334.2700   96.3637  100.3000    0.2803    8.0776    2.3099 
1334.3400   96.3643  100.2486    0.2799    8.0913    2.3099 
1334.4100   96.3797  100.1842    0.2793    8.0913    2.3099 
1334.4800   96.3904  100.1566    0.2787    8.1128    2.3095 
1334.5500   96.3765   99.9869    0.2783    8.1128    2.3087 
1334.6200   96.3854   99.8986    0.2779    8.1336    2.3073 
1334.6900   96.3623   99.9374    0.2776    8.1403    2.3054 
1334.7600   96.3774   99.8216    0.2773    8.1525    2.3028 
1334.8300   96.3475   99.7932    0.2769    8.1641    2.2996 
1334.9000   96.3496   99.9602    0.2766    8.1665    2.2961 
1334.9700   96.3248  100.0595    0.2764    8.1731    2.2926 
1335.0400   96.3152  100.1775    0.2763    8.1725    2.2893 
1335.1100   96.3032  100.3207    0.2761    8.1481    2.2866 
1335.1800   96.2904  100.4585    0.2759    8.1481    2.2844 
1335.2500   96.2892  100.5176    0.2762    8.0500    2.2829 
1335.3200   96.2801  100.5842    0.2764    8.0500    2.2819 
1335.3900   96.2842  100.7674    0.2766    7.9578    2.2814 
1335.4600   96.2734  100.9375    0.2767    7.9491    2.2811 
1335.5300   96.2826  100.9506    0.2768    7.9322    2.2809 
1335.6000   96.2470  100.9014    0.2769    7.9239    2.2807 
1335.6700   96.2661  100.9063    0.2769    7.9324    2.2804 
1335.7400   96.2216  100.9818    0.2768    7.9439    2.2800 
1335.8100   96.2356  101.0408    0.2770    7.9478    2.2795 
1335.8800   96.2198  101.1782    0.2775    7.9652    2.2790 
